"","lon","lat","osm_id","code","fclass","name"
"12",75.8326955,30.8888319,"161959750",2082,"school","BCM School"
"31",75.8619517,30.7884443,"186684459",2082,"school","D.P.S. (Deshmesh public school) Sreenh"
"32",75.8829705,30.8689566,"191839926",2082,"school","Baba Mukand Singh Sr. Sec. School"
"35",75.8173479,30.8875806,"234381507",2082,"school","Baba Isher Singh Public School"
"43",75.9550323,30.8315985,"243968406",2082,"school","High School Dharour"
"44",75.9556724,30.831714,"243968424",2082,"school","Primary School Dharour"
"101",72.9256871,19.0436727,"246446609",2082,"school","Home for mental deficient childern"
"121",77.6025994,12.8772119,"247966855",2082,"school",NA
"167",75.9004881,31.5276352,"257726886",2082,"school","Shishu Shikhsha Mandir School"
"168",75.9016211,31.5272913,"257727049",2082,"school","Govt. College"
"183",77.6517898,12.9187516,"263472508",2082,"school","Angel Heart Montessori Play School"
"198",77.166546,28.5084497,"266378530",2082,"school","Heritage International School"
"199",77.1634819,28.5117155,"266378545",2082,"school","Deep Public School"
"276",74.4007125,31.4739484,"271096995",2082,"school","DPS Girls"
"277",77.1378574,28.489358,"271335768",2082,"school",NA
"287",87.3479767,23.5816947,"273518425",2082,"school","Bijra High School"
"290",74.3996152,31.5503973,"275110114",2082,"school","Vet. Uni"
"320",76.7014757,11.4124436,"280942706",2082,"school","Breeks All India Secondary School"
"334",76.701164,11.378769,"283102681",2082,"school","Lawrence School"
"345",76.6942109,11.4070228,"283615937",2082,"school","Nazareth Convent"
"355",74.845393,12.8743451,"286999980",2082,"school","St. Aloysius School"
"368",75.83145,11.2583,"289607510",2082,"school","Bharatiya vidya bhavan school"
"369",75.84853,11.22733,"289607512",2082,"school","Pantheerankave High School"
"371",75.8191,11.2629,"289607515",2082,"school","Nellikode school"
"372",75.7950993,11.2545667,"289607517",2082,"school","HILL TOP school"
"373",75.8542269,11.1981351,"289607522",2082,"school","Farook Higher Secondary School"
"376",75.929746,11.311888,"289607560",2082,"school","Spring Valley School"
"392",76.7076641,11.4152621,"290585815",2082,"school","Kingsbury Nursery School"
"397",76.9466707,11.2808397,"292239800",2082,"school",NA
"504",80.2029459,12.9853147,"300467984",2082,"school","New Prince Higher Secondary"
"505",80.206505,12.9868373,"300468062",2082,"school","St. Marks School"
"528",75.584562,31.3177238,"302575506",2082,"school","APJ School"
"594",75.8490037,30.3393471,"307442661",2082,"school","Govt. High School"
"597",75.8284447,30.8887179,"308025377",2082,"school","GNP School"
"598",75.8182652,30.890876,"308025621",2082,"school","GNP School"
"655",76.9615826,8.501973,"309627495",2082,"school","Govt. school, cotton hill"
"670",75.7009999,31.2693756,"310498224",2082,"school","DPS School"
"677",75.599961,31.308375,"310716930",2082,"school","St Joseph's Convent School Jalandhar Cantt"
"682",80.1859365,12.9917907,"310830715",2082,"school","Kendriya Vidyalaya"
"718",80.186583,12.9704142,"312014519",2082,"school","Brilliant Matriculation School"
"719",80.1894583,12.985101,"312015795",2082,"school","Mowbray's Matriculation Higher Secondary School"
"722",77.0525305,28.4295352,"312101676",2082,"school","Delhi Public School, Primary Section"
"724",77.0458728,28.4463106,"312101690",2082,"school","CR Model Public School"
"823",77.0242479,11.1047421,"321420715",2082,"school","United Physically Handicapped School"
"824",77.0090525,11.090002,"321420716",2082,"school","Vimal Jothi Convent School"
"894",80.2460833,12.8861992,"325787792",2082,"school","Shri Sakthi Vidyalaya"
"904",76.9474178,11.0049837,"330069938",2082,"school","Corporation Boys High School"
"905",76.9494051,11.0056048,"330069956",2082,"school","Corporaton School for Deaf"
"908",76.9496918,11.0129029,"330069967",2082,"school","Bharatiya Vidya Bhavan Matriculation Higher Secondary School"
"909",76.9468444,11.0131455,"330069969",2082,"school","SRP Ponnuswamy Chettiar Sundrammal Vidhyalaya Matric School"
"910",76.9486042,11.0106805,"330069972",2082,"school","Vidya Vriksha Play School"
"911",76.942949,11.0130484,"330069974",2082,"school","Bishop Ubaharam School"
"916",76.9641166,11.0077787,"330070078",2082,"school","Kattur Municipal Elementary School"
"956",77.5980563,13.1706334,"332943523",2082,"school","Stonehill International School"
"977",77.0465147,28.4636101,"335970186",2082,"school","Salvan Public School"
"981",76.9735828,11.005264,"337578514",2082,"school","Stanes HSS"
"1115",78.0853374,30.4239911,"342115702",2082,"school","Oak Grove School"
"1123",73.7924199,17.9214501,"342117699",2082,"school","St Peters School"
"1126",73.8116499,17.9214501,"342117749",2082,"school","Bhartiya Vidyapeeth School"
"1127",73.8104591,17.9200801,"342117767",2082,"school","Gods Valley School"
"1157",73.79654,17.9214501,"342120258",2082,"school","Fidai Academy"
"1196",76.9579425,11.0115779,"343436818",2082,"school","Kikani Higher Secondary School"
"1199",76.9608378,11.0137003,"343438043",2082,"school","Coporation Girls Higher Secondary School"
"1200",76.9616315,11.0136837,"343438055",2082,"school","Corporation Elementary School"
"1212",76.55096,9.44509,"343718247",2082,"school","Sacred Heart Higher Sec Sch"
"1248",72.8262102,19.0550042,"347125102",2082,"school","Apostolic Carmel Convent (Girl's School)"
"1249",72.8225796,19.0462341,"347125358",2082,"school","Mount Mary's Convent High School"
"1260",72.8253751,19.0554901,"347168970",2082,"school","Learners Academy"
"1267",80.1943992,13.0542557,"347356350",2082,"school","Balalok Matriculation Higher Secondary School"
"1268",80.1967081,13.0530994,"347362882",2082,"school","JaiGopal Garodia Girls High school"
"1327",80.1597172,12.496465,"353073508",2082,"school","Atomic Energy Central School - I"
"1332",80.15992,12.4985712,"353075027",2082,"school","Kendriya Vidyalaya I"
"1396",77.1609298,11.0254394,"354835105",2082,"school","Kendriya Vidhyalaya School"
"1398",77.5182993,10.7471261,"354836052",2082,"school","Sindhu Matriculation Higher Secondary School"
"1400",77.5446029,10.6693649,"354836514",2082,"school","Annafathima Matriculation Higher Secondary School"
"1452",75.9075062,30.8944019,"356856987",2082,"school","DCM Predency School"
"1453",75.907899,30.8922677,"356868516",2082,"school","BCM Senior Secondary School"
"1614",79.5324484,13.5447945,"370771085",2082,"school","School"
"1615",79.609715,13.6028312,"370771086",2082,"school","School"
"1647",76.7038858,11.4155795,"378180886",2082,"school","New Era School"
"1747",77.6342169,13.0483112,"391929291",2082,"school","Swamy Vivekananda Primary and High School"
"1763",76.6921253,11.40905,"393869299",2082,"school","Cliff School"
"1764",76.6943961,11.4095823,"393869300",2082,"school","St. Joseph's School"
"1765",76.6881783,11.4079645,"393869370",2082,"school","Cliff School annexe"
"1914",77.6341637,13.0681804,"410860116",2082,"school","Rashtrotthana Vidya Kendra"
"1917",77.6350463,13.0989262,"410861199",2082,"school","Golden Chariot Public School"
"1924",77.6327504,13.0557708,"412681648",2082,"school","Manasa Public School"
"1932",76.7100466,11.41603,"413395250",2082,"school","School for the deaf"
"1976",80.2677285,13.0034528,"417776186",2082,"school","Olcott Memorial HSS"
"1977",77.6387738,13.0384174,"417894271",2082,"school","United Public School"
"1981",75.8510638,11.2826042,"418804553",2082,"school","Mayanad UP School"
"1985",77.6452875,13.0513406,"419770821",2082,"school","St Michael High School"
"1992",77.647491,13.0545448,"420087897",2082,"school","Teresa Bacq School"
"2017",72.5490839,23.047875,"429228993",2082,"school","St. Xavier's High School, Loyola Hall"
"2019",72.568061,23.0351192,"429229001",2082,"school","Mt. Carmel School"
"2025",72.556364,23.0483604,"429438524",2082,"school","Navrang School"
"2031",72.4575053,23.0419569,"429790285",2082,"school","DPS - Delhi Public School, Bopal"
"2032",72.5484846,23.0403655,"429790293",2082,"school","A. G. Teachers High School"
"2038",72.5766297,23.0329288,"429795958",2082,"school","Mount Carmel School, Khanpur"
"2044",75.8134625,11.2945982,"430553265",2082,"school","Silver Hills"
"2108",72.548795,23.0213639,"440320402",2082,"school","C. N. Vidyalaya, School"
"2122",77.6885541,13.0519542,"440668799",2082,"school","L.B.S. School"
"2140",77.2825109,30.5617261,"442662897",2082,"school","Army Public School"
"2143",77.6427683,13.0371969,"443615005",2082,"school","Yuvalok School"
"2144",77.6437784,13.0317498,"443615521",2082,"school","Sinclairs High School"
"2205",75.820766,30.8926694,"450591216",2082,"school","New Senior Secondary School"
"2296",75.8716447,30.8925567,"458762744",2082,"school","Govt. senior Model School"
"2313",80.2036936,13.0557176,"459641116",2082,"school","Karthikeyan Matriculation Higher Secondary School"
"2314",80.2036334,13.0542712,"459641978",2082,"school","LaClarence Matriculation Higher Secondary Schoolt"
"2321",80.1982863,13.0439197,"459652832",2082,"school","Thai Sathia School"
"2330",77.6037259,12.9678783,"459811952",2082,"school","Saint Anthony's Boys School"
"2331",77.6033897,12.9694218,"459811954",2082,"school","Sacred Hearts Girls School"
"2332",77.6017107,12.9702675,"459811969",2082,"school","Bishop Cottons Girls High School"
"2334",80.2044146,13.0577159,"459815445",2082,"school","General Chariappa School"
"2343",76.6297013,12.3342845,"465192715",2082,"school","Mysore West Lions Sevanikethan School"
"2346",76.6366858,12.3272782,"465192999",2082,"school","Ramakrishna Vidyashala"
"2347",76.6299481,12.3286366,"465195463",2082,"school","Nirmala Convent"
"2389",80.260959,13.0100808,"472788666",2082,"school","Shri Sankara Senior Secondary School"
"2391",80.2613841,13.0074771,"473396856",2082,"school","Starlight Abacus School"
"2408",75.6433611,31.3012875,"477141643",2082,"school","DPS"
"2412",75.7547305,31.2351876,"477141674",2082,"school",NA
"2413",75.7740906,31.1781104,"477141680",2082,"school","Divine"
"2420",75.8339674,30.9425636,"477193658",2082,"school","Green Land Public School"
"2434",77.123813,28.3022552,"477905057",2082,"school","Government Secondary School, Damdama"
"2458",77.0783203,28.4539934,"482664044",2082,"school","Stones2milestones"
"2479",77.5827808,34.1668983,"484248270",2082,"school","Moravian School"
"2501",78.1684363,34.0289871,"485617328",2082,"school",NA
"2532",77.6742721,33.8282593,"492413662",2082,"school",NA
"2666",78.4453558,17.4427279,"513424892",2082,"school","Gautham Model School"
"2678",77.7183757,12.9853135,"514307734",2082,"school","Gopalan International Schoool"
"2681",77.7187289,12.9953577,"515657622",2082,"school","Hoodi Primary School"
"2700",77.7167666,12.9934221,"518624061",2082,"school","Hoodi High School"
"2720",78.1420885,9.9296805,"519011096",2082,"school","Wakf Board College"
"2722",78.1477877,9.912678,"519011154",2082,"school","Thiagarajar College"
"2723",78.146526,9.9064636,"519011157",2082,"school","Sourashtra Girls Higher Secondary School"
"2725",78.1394621,9.9257407,"519011234",2082,"school","MAVMM Matriculation School"
"2729",77.5423272,12.9965228,"519549757",2082,"school","St Charles High School"
"2744",78.7836988,10.2358689,"522823643",2082,"school","Ulagappa Higher Secondary School"
"2746",78.8149123,10.2577297,"522866375",2082,"school","SKT Gandhi Higher Secondary School"
"2754",78.8134863,10.2508078,"523697145",2082,"school","SKT Primary School"
"2772",77.0510872,8.4908522,"527830360",2082,"school",NA
"2779",77.5442935,12.9885908,"529780984",2082,"school","Carmel High School"
"2780",77.5425855,12.9871857,"529781025",2082,"school","VVS Girls College"
"2834",76.2162954,10.337875,"538131069",2082,"school",NA
"2844",76.9598025,8.5216263,"538606605",2082,"school","Salvation Army Higher Secondary School"
"2845",76.9580795,8.5185922,"538798532",2082,"school","Nirmalabhavan HSS"
"2855",75.9304171,11.3186799,"539412613",2082,"school","VHSE & HSE School"
"2867",76.489426,32.3598212,"540021089",2082,"school","Government Primary School, Hilling"
"2869",76.5128192,32.3689055,"540031027",2082,"school","Government High School, Lamu"
"2898",76.6431092,12.2978617,"540654209",2082,"school","Government School;Raman IT"
"2902",76.7239037,32.044842,"540863319",2082,"school","Govt Senior Secondary School, Bir"
"2939",79.1297275,10.7786643,"542975336",2082,"school","Govt School for Blind"
"2945",76.3404236,11.070387,"543665316",2082,"school","Madrassa"
"2960",77.1808404,28.5978094,"545641483",2082,"school","Secondary School"
"2970",76.3390289,11.0600064,"548342231",2082,"school","AMLP School"
"2972",76.3454339,11.0751491,"548342645",2082,"school","GUPS Chalava"
"2976",77.0849922,31.7192978,"550107678",2082,"school","Government Middle School, Dyori"
"2992",76.3953388,30.3195521,"554658324",2082,"school","Budha Dal Public School"
"2993",76.3357545,11.0650391,"556700539",2082,"school","MES EDUCATIONALCOMPLEX"
"2994",76.3946076,11.001304,"556709848",2082,"school","Kalladi High School"
"3000",76.3756676,11.0364508,"559474626",2082,"school","Madrassa"
"3002",76.348395,11.0595072,"559519770",2082,"school","GOHSS Edathanattukara"
"3004",76.345609,11.0607477,"559519779",2082,"school","Madrassa"
"3005",76.3467831,11.0609971,"559519781",2082,"school","Victory College"
"3024",80.1416397,12.9426246,"560231368",2082,"school","NSN School"
"3031",76.4909477,32.1206802,"560418326",2082,"school","Government Middle School Bagoda"
"3040",76.4002639,32.1640208,"560440024",2082,"school","Government Senior Secondary School, Tang"
"3042",76.3814968,32.1757958,"560443052",2082,"school","Kendriya Vidyalaya"
"3082",76.8459333,31.5974483,"561089221",2082,"school","Government Senior Secondary School, Sidhyani"
"3083",76.8279239,31.6013502,"561090947",2082,"school","Government Middle School, Kalkhar"
"3120",75.9704818,30.837332,"567808521",2082,"school",NA
"3121",75.1043174,12.3065284,"567826506",2082,"school",NA
"3122",75.0930824,12.3117734,"567826643",2082,"school",NA
"3139",76.2728787,32.21065,"570710884",2082,"school","Government Primary School Maiti"
"3146",75.8660054,30.8477136,"571360987",2082,"school","Govt. Girls Sr. Sec"
"3159",76.157628,10.3750267,"572009784",2082,"school","Government Higher Secondary School"
"3160",77.5780313,13.0064539,"573333532",2082,"school","Stella Maris School"
"3201",80.1549784,12.5032154,"577339814",2082,"school","Govt Higher Secondary School, Pudhupattinam"
"3227",77.5994637,12.9430867,"579371985",2082,"school","Madrasa-e Arabiya"
"3263",79.8375198,11.9861795,"582987221",2082,"school","Last School"
"3284",76.9024047,31.5340116,"583530177",2082,"school","Anand Marg Public School"
"3295",76.8894558,31.5314167,"583540522",2082,"school","Government Middle School, Sundernagar"
"3305",76.885039,31.5210422,"583541991",2082,"school","Government Senior Secondary School, Sundernagar"
"3311",78.1010015,30.4540018,"583871504",2082,"school","Woodstock School"
"3320",77.1909497,28.5640001,"587754665",2082,"school","St Mary's School"
"3324",76.9480773,8.5347894,"588740474",2082,"school","Technical Higher Secondary School, Pattom"
"3339",77.2143968,28.5608316,"591430882",2082,"school","Father Agnel School"
"3341",79.1244736,10.7839452,"592944821",2082,"school","Shri Venkateshwara Matric. Higher Secondary School"
"3342",72.8291271,19.0545178,"593088335",2082,"school","St Stanislaus School"
"3343",77.6171575,13.1508901,"593132455",2082,"school","Stonehill International School"
"3347",76.55094,9.44509,"594866408",2082,"school","Sacred Heart Higher Sec Sch"
"3366",80.1368303,12.953827,"595654418",2082,"school","Government Boys Higher Secondary School"
"3367",80.1345334,12.9519873,"595655153",2082,"school","Lakshmi Ammal School"
"3368",80.1937294,13.060167,"595657131",2082,"school","Chinmaya Vidyalaya"
"3381",80.1873415,13.0474865,"595735861",2082,"school","St. John's Matriculation Higher Secondary School"
"3386",76.4282946,30.3146346,"596500680",2082,"school","Pax"
"3409",80.135299,12.9533188,"598059387",2082,"school","Government Girls Higher Secondary School"
"3412",77.5683395,13.0011737,"598212615",2082,"school","B. P. Indian"
"3418",77.5416305,13.0457661,"598947938",2082,"school","Father Mathews School"
"3458",76.9436154,8.4982947,"600882702",2082,"school","Holy Angels Convent"
"3459",76.945332,8.4996953,"600882703",2082,"school","St Joseph's School"
"3478",76.7035483,32.0394062,"603742541",2082,"school","Tibetan School"
"3502",75.5829436,32.254518,"605908625",2082,"school","primary school"
"3513",77.5621798,13.0092653,"608492745",2082,"school","Vani Vilas"
"3535",77.122304,28.5925928,"610885935",2082,"school","New delhi"
"3555",80.2088301,13.0735855,"612546126",2082,"school","Kanmani Montessori School"
"3558",80.2101068,13.0803366,"612556883",2082,"school","Anna Adharsh school"
"3567",80.2062046,13.0734099,"614436617",2082,"school","Ambal Metriculation School"
"3568",75.4335842,31.2094811,"615901643",2082,"school","Govt.Sr.Sec.School UGGI"
"3621",76.6149214,9.3847969,"622250817",2082,"school","Thottabhagam"
"3622",76.6124672,9.39997,"622250917",2082,"school","NSS High School"
"3623",76.6144413,9.39816,"622250924",2082,"school","NSS LP School"
"3624",76.578548,9.3972444,"622251022",2082,"school","Marthoma Residential School"
"3625",76.5747822,9.3859321,"622251037",2082,"school","SCS High School"
"3628",76.2931923,32.2760857,"622325152",2082,"school","Government Primary School Khadbai"
"3644",76.3961664,9.9469737,"622536440",2082,"school","St. George High School"
"3667",76.8761829,31.4006236,"626887525",2082,"school","Government Primary School, Nehar"
"3718",77.005252,31.3064367,"626971391",2082,"school","Government Primary School, Hadaboi"
"3726",77.0932378,31.248249,"627244361",2082,"school","Saraswati Vidya Mandir, Tattapani"
"3727",77.1003249,31.243402,"627244616",2082,"school","Government Primary School, Palyadh"
"3729",77.1216175,31.2449774,"627248212",2082,"school","Government Middle School, Sunni"
"3735",77.8140344,31.5423969,"627282301",2082,"school","Government High School, Badhal"
"3747",80.159109,17.2357187,"629212517",2082,"school","Harvest Public School"
"3756",80.1488363,17.2560775,"631603895",2082,"school","Nirmal Hridai High School"
"3775",78.5122245,17.4054551,"634123608",2082,"school","S.V.E.S High School"
"3777",78.5135035,17.4075707,"634123799",2082,"school","Jyothi Bala Mandir High School"
"3807",80.1401213,17.2586472,"636041713",2082,"school","Nirmal Hridai Branch School"
"3811",73.9281547,18.5111663,"637780421",2082,"school","Magarpatta City Public School"
"3826",79.0816915,21.1608012,"640553597",2082,"school","SFS High School"
"3881",72.9063356,19.065657,"651265089",2082,"school","Modern English School"
"4022",77.6175314,12.946945,"662761071",2082,"school","St. Sara's School"
"4023",76.1837511,10.6096136,"662769644",2082,"school","VVLP School, Edakkulam"
"4024",76.179379,10.6070551,"662769645",2082,"school","Santha Higher Secondary School , Avanoor"
"4025",76.1851182,10.5999759,"662819856",2082,"school","ANMUP School Manithara"
"4053",79.131127,10.7878238,"663572434",2082,"school","Oriental Higher Secondary School"
"4054",79.1320295,10.7907195,"663572447",2082,"school","Kalyanasundaram Higher Secondary School"
"4055",79.1361739,10.7885803,"663572448",2082,"school","Veeraraghava Higher Secondary School"
"4071",77.5683888,12.9921674,"663604695",2082,"school","Deccon school"
"4073",77.5684205,12.991587,"663604698",2082,"school","Anganavadi"
"4077",77.6139658,12.9496275,"663604709",2082,"school","Government School"
"4078",77.6143357,12.9497624,"663604710",2082,"school","Methodist church school"
"4081",77.6151518,12.9499206,"663604714",2082,"school","Adithya public school"
"4088",77.5760778,13.0140892,"663920339",2082,"school","Nagasena Vidyalaya"
"4116",76.0367558,10.8452671,"664074017",2082,"school","Government Higher Secondary School"
"4123",77.580665,13.0089647,"664332022",2082,"school","Advanced Animation Academy"
"4145",79.1161225,10.7672606,"665691868",2082,"school","Wisdom Nursery and Primary School"
"4151",77.5925498,12.9081047,"665727324",2082,"school","Vasavi Education Trust School"
"4211",80.1510498,17.2493248,"667305443",2082,"school","Health workers training"
"4248",72.8133019,18.9011867,"669248411",2082,"school","Army School, Mumbai"
"4261",79.1427239,10.7845811,"670892777",2082,"school","Stella Maris School"
"4318",76.4550743,13.2631185,"672355991",2082,"school","Kalpataru Institute of Technology"
"4328",74.4509957,17.5905091,"672690414",2082,"school",NA
"4365",80.1418378,17.2546083,"674066937",2082,"school","Tiny Tots"
"4368",80.1437316,17.2593917,"674066945",2082,"school","Noble Kids"
"4394",80.1529021,17.2444652,"674157043",2082,"school","Century School"
"4408",77.5871818,12.9109855,"675547506",2082,"school","Innisfree House School"
"4441",78.49105,17.3958125,"677298885",2082,"school","YMCA"
"4442",78.4884345,17.3957311,"677300258",2082,"school","Jingle Bell School"
"4450",73.8837476,18.5096383,"679047332",2082,"school","Bishop's School"
"4459",76.6337108,9.7358289,"679641399",2082,"school","Govt LP school Andoor"
"4462",76.5617407,9.7563252,"679895719",2082,"school","St Marys Boys High School"
"4464",76.5623197,9.7541685,"679895756",2082,"school","St Marys Girls High School"
"4466",73.1727475,19.0266145,"680015051",2082,"school","Adivasi Ashramshala School"
"4483",76.6308295,9.7454105,"685093462",2082,"school","St. Marys L.P. School, Palackattumala"
"4484",76.6110309,9.7709879,"685095988",2082,"school","K R Narayanan Govt LP School"
"4500",76.67912,9.7105217,"690417022",2082,"school","St. Thomas High School Pala"
"4519",76.0079785,12.9728511,"692933095",2082,"school","Islamiya Arabic College"
"4557",76.7757625,32.0905931,"699756998",2082,"school","Government Middle School, Bada Gran"
"4558",76.7959327,32.0812395,"699765776",2082,"school","Government Primary School, Kothikodh"
"4561",76.8530041,32.0851086,"699782160",2082,"school","Government Primary School, Swarh"
"4563",76.8535424,32.0870937,"699782197",2082,"school","Government Primary School, Chherna"
"4569",76.9989254,32.0356358,"699804105",2082,"school","Government Primary School, Kadingcha"
"4571",77.0043103,32.028636,"699810803",2082,"school","Government Primary School, Chalah"
"4572",77.0117815,32.0176787,"699813058",2082,"school","Government Primary School, Gramang"
"4573",77.0289962,31.9979334,"699828640",2082,"school","Goverment Senior Secondary School, Shalang"
"4594",76.6337971,9.7357265,"705778260",2082,"school","Govt L.P School Andoor"
"4598",75.7892997,11.2743612,"706875397",2082,"school","Markaz International School"
"4609",76.9877135,28.6114104,"709795355",2082,"school","Government Boys and Girls Senior Secondary School"
"4611",79.8158444,12.0119983,"711383671",2082,"school","Future School"
"4629",79.8162665,12.013792,"712969471",2082,"school","Transition School"
"4635",76.2988557,32.2770041,"716022826",2082,"school","Government Primary School, Rava"
"4649",76.301634,32.4445305,"716227329",2082,"school","Government High School, Barehi"
"4650",76.3018802,32.4452521,"716227331",2082,"school","Government Primary School, Barehi"
"4652",76.5379928,32.4424815,"716314238",2082,"school","DAV Public School Bharmour"
"4653",76.5380749,32.4425231,"716314239",2082,"school","Hill Modern Public School, Bharmour"
"4657",76.4520472,32.530361,"716343588",2082,"school","Government High School, Mandah"
"4658",76.4704621,32.552955,"716347295",2082,"school","Government Primary School, Bhadra"
"4663",76.2164601,32.20184,"716606516",2082,"school","Government Primary School, Upper Basnoor"
"4664",76.2113367,32.2250084,"716606770",2082,"school","Government Primary School, Rehlu"
"4665",76.2309466,32.1948766,"716622528",2082,"school","Government High School, Dodhamb"
"4667",80.1518158,17.2442577,"717456781",2082,"school","Jyothi Balamandir High School"
"4677",80.1507781,17.2527663,"719067401",2082,"school","Kinnera High School"
"4692",76.4687256,32.1156839,"724112043",2082,"school","Government Senior Secondary School, Paraur"
"4693",76.4157149,32.144016,"724118154",2082,"school","Government Senior Secondary School, Dadh"
"4694",76.4463216,32.1554025,"724120197",2082,"school","Government High School, Jia"
"4703",76.5878109,9.7585586,"725360135",2082,"school","Mannackanad U.P. School"
"4711",78.4883969,17.4004331,"726146076",2082,"school","Narayana Junior College, AIEEE"
"4716",78.3948051,17.5153051,"726182057",2082,"school","Narayana Junior College (Girls - Seniors) (AIEEE)"
"4725",78.4578133,17.404402,"726243304",2082,"school","Holy Mary Girls High School"
"4728",78.4524941,17.3937581,"726274913",2082,"school","St.Josephs High School"
"4732",80.1484648,17.2428045,"726662176",2082,"school","Mominan Govt High"
"4733",80.1487012,17.2429194,"726662902",2082,"school","Ideal Model"
"4742",78.484836,17.4015388,"727180831",2082,"school","Goutham Model School"
"4751",75.7966172,11.2149117,"728159280",2082,"school","GVHS Meenchanda"
"4752",75.7947826,11.2191317,"728164106",2082,"school","Ramakrishna Mission School"
"4763",78.4730227,17.3947951,"728911854",2082,"school","Sujatha High School"
"4764",78.474754,17.393638,"728912657",2082,"school","Little Flower High School"
"4765",78.4740505,17.3925192,"728915591",2082,"school","Little Flower Primary School"
"4768",76.9816972,11.0408776,"729616609",2082,"school","CMS Matriculation Higher Secondary School"
"4779",76.8577145,32.0717007,"733593852",2082,"school","Government Senior Secondary School, Lohardi"
"4782",76.2964646,32.1544481,"733808739",2082,"school","Government Senior Secondary School, Bagli"
"4790",80.1455818,17.2394409,"734205775",2082,"school","Little Indians"
"4794",80.1458994,17.236365,"734221348",2082,"school","Kuchavalal UPS"
"4795",77.7259065,12.8840277,"734815233",2082,"school","DPS"
"4817",80.1380379,17.237885,"735116391",2082,"school","Rajendra Nagar UPS"
"4820",80.13806,17.242705,"735132197",2082,"school","Bloom Technologies"
"4850",78.4588295,17.4113728,"739161413",2082,"school","Nasr School"
"4858",77.0254814,8.5455048,"744852002",2082,"school","NSS HS Chowalloor"
"4901",80.1497816,17.2410899,"747145586",2082,"school","Geetam. Pub School"
"4902",80.2224844,12.9787977,"747616456",2082,"school","Akshaya"
"4907",73.9917875,17.6816618,"748144329",2082,"school","New English School, Satara"
"4957",73.8377434,18.533081,"761948537",2082,"school","Symbiosis Nursery School"
"4959",80.1869452,12.9214424,"761949200",2082,"school","Christ King School"
"4973",77.0372885,28.7946905,"762031791",2082,"school","Government(Bada school)"
"4989",78.4865035,17.4404012,"762994074",2082,"school","Wesley High School"
"5019",80.1426601,17.2537322,"764439938",2082,"school","BIE Spoken English"
"5021",76.6497738,9.735721,"764894572",2082,"school","Edanadu SVNSS High School"
"5022",80.0612717,17.139698,"765015270",2082,"school","M.P.Primary School"
"5055",75.4315546,31.2152648,"767237602",2082,"school","sunny model school"
"5059",77.5966735,12.9478303,"769215507",2082,"school","Hombegowda Boys School"
"5081",80.147447,17.2489778,"772647211",2082,"school","BIT Computers"
"5084",80.1473652,17.2490744,"772648226",2082,"school","Aptech"
"5086",80.147704,17.249246,"772649410",2082,"school","Prism Multimedia"
"5088",80.1476864,17.2495798,"772720653",2082,"school","Third Eye"
"5110",76.2987328,32.4585925,"773389898",2082,"school","Government Primary School, Tur"
"5111",76.2871686,32.4621367,"773394107",2082,"school","Government Primary School, Kundi"
"5112",76.5434688,32.3365412,"773398582",2082,"school","Himalayan Public School"
"5113",76.5459635,32.3354768,"773398583",2082,"school","Adarsh Adhunik School"
"5168",76.3153341,32.7081136,"774228961",2082,"school","Government Primary School, Kalprai"
"5172",76.1484187,32.8352151,"774318305",2082,"school","Government Senior Secondary School, Teesa"
"5194",75.7962348,11.2219211,"775944295",2082,"school","Kannanchery school"
"5196",75.7998611,11.2266146,"775947102",2082,"school","Govt. UP School, Thiruvannur"
"5199",75.785459,11.2342702,"775949136",2082,"school","AWH Special College and Hostel"
"5200",75.7958338,11.2189637,"775949138",2082,"school","Ramakrishna Mission LP School"
"5204",75.6927976,30.7474436,"778367125",2082,"school","Shaheed Kartar Singh Sarabha International Public School"
"5206",75.7743627,11.2533006,"778837190",2082,"school","St.Antony's A U P School for Boys."
"5208",75.7714937,11.2531169,"778837196",2082,"school","Gujarathi Vidyalaya"
"5209",75.7748733,11.2569366,"778837199",2082,"school","St.Joseph's Junior School"
"5210",75.7735236,11.2528674,"778837211",2082,"school","St.Joseph's Boys Higher SecondarySchool"
"5212",75.7751201,11.2645547,"778845459",2082,"school","Providence Girls High School"
"5230",75.9607658,30.8041751,"781584640",2082,"school","Primary School Dugri"
"5233",75.95211,30.8021392,"781608820",2082,"school","Kalgidhar Academi Dugri"
"5256",80.1385987,17.2579761,"789200791",2082,"school","Montessori High"
"5262",80.1420511,17.2525475,"789315130",2082,"school","Ricob Bazar Govt. High School"
"5268",80.1692492,17.071916,"791092927",2082,"school","ZPHS, Timminenipalem"
"5275",80.1545878,17.2176523,"791252955",2082,"school","Babymoon"
"5278",80.1970854,17.0943014,"791293176",2082,"school","UPS Tirumulapuram"
"5285",76.0171088,10.6434551,"793931007",2082,"school","sacred heart convent l.p. school"
"5291",80.1499703,17.2338845,"798935456",2082,"school","Lumbini"
"5294",80.1527203,17.2347161,"798935503",2082,"school","Govt Primary"
"5296",75.8701039,30.8746619,"800019818",2082,"school","Harkrishan Public School"
"5300",80.1413282,17.2435678,"801049894",2082,"school","Khazipura High"
"5308",76.6436179,9.747894,"801918952",2082,"school","Valavoor School"
"5311",75.5490301,30.3815114,"802009201",2082,"school","New Horizon School"
"5312",75.5527856,30.3763034,"802242439",2082,"school","Kanya High School"
"5334",76.9820619,11.0138918,"803389784",2082,"school","Mani Higher Seconday School"
"5347",80.168052,17.2482264,"804225788",2082,"school","Indira nagar high school"
"5350",79.8162439,12.011538,"805008610",2082,"school","Last School"
"5366",76.6496621,9.7357386,"808537792",2082,"school","Edanad Govt LP School"
"5369",75.4340958,31.2094363,"808576383",2082,"school",NA
"5376",76.6648605,32.72383,"809962485",2082,"school","Government Senior Secondary School, Udaipur"
"5390",76.6899879,32.6893344,"810046651",2082,"school","Government Senior Secondary School, Triloknath"
"5393",76.9127269,32.6133632,"810145151",2082,"school","Government Middle School, Kirting"
"5398",76.5710665,32.0382326,"811008771",2082,"school","Government Senior Secondary School, Andretta"
"5399",76.5697506,32.0398652,"811008783",2082,"school","Neugal Public School, Andretta"
"5402",76.5323726,32.081026,"811008934",2082,"school","Government Senior Secondary School, Rajpur"
"5403",76.5811538,31.9805519,"811015594",2082,"school","Government High School, Ashapuri"
"5405",76.5986675,32.0055792,"811016033",2082,"school","Government Primary School, Bhuana"
"5406",76.5972221,32.0075963,"811016069",2082,"school","Government Senior Secondary School, Makol"
"5432",72.841711,19.2312257,"814384677",2082,"school","Don Bosco Primary School"
"5433",72.8417647,19.2303647,"814385412",2082,"school","Don Bosco High School"
"5438",72.8430199,19.2375106,"814449361",2082,"school","Ajmera School"
"5465",80.1558571,17.2518553,"818388889",2082,"school","Old Dps"
"5466",75.947926,31.4976065,"818415160",2082,"school","Saint Joseph"
"5477",76.6349905,9.7586683,"820309686",2082,"school","St. Joseph H.S Kudackachira"
"5478",80.1507569,17.2589333,"820626969",2082,"school","Sahithi Dspace"
"5482",80.1348457,17.2561042,"821178698",2082,"school","jublipura primary"
"5483",80.1457385,17.2628718,"821178700",2082,"school","Crescent"
"5493",80.1491662,17.2272894,"823268731",2082,"school","Sarada"
"5497",80.1537119,17.2048116,"824332909",2082,"school","Sitarampuram UPS"
"5498",80.138408,17.2219708,"824332917",2082,"school","SVM"
"5503",77.6664942,12.9232058,"825409783",2082,"school","Private school"
"5518",76.9427623,13.3055649,"827240337",2082,"school","Government Higher Primary School, Old AK Colony"
"5526",78.391362,17.4412619,"827576336",2082,"school","Sharada High"
"5530",76.9366391,13.3090518,"829100964",2082,"school","Priya English School"
"5536",76.920494,13.3228931,"830141495",2082,"school","Government Higher Primary School, G. Harivesandra"
"5561",77.6972812,12.9183731,"833668445",2082,"school","School"
"5597",75.5391682,30.371874,"835661331",2082,"school","Sarvhitkari Sen. Sr. School"
"5636",80.161097,17.2623774,"840267182",2082,"school","ATBT"
"5658",76.7364549,9.9101818,"841465170",2082,"school","Girls HS Muthalakkodam"
"5676",78.5362094,17.400104,"845467748",2082,"school","Hyderabad Public School"
"5702",76.8052732,32.0776069,"847676999",2082,"school","Government Primary School, Chelra di Malhan"
"5723",76.8127107,32.3226589,"848314992",2082,"school","Government Middle School, Bada Bhangal"
"5752",76.5888048,32.0720039,"851016530",2082,"school","Amarkanta Public School"
"5758",76.537785,32.1333068,"853160202",2082,"school","Dhauladhar Public School"
"5759",78.3889674,17.5003578,"854215519",2082,"school","Bashkar Model School"
"5781",77.6138117,13.0016772,"859809191",2082,"school","Naasih Montessori Public School"
"5797",76.4735269,9.9788306,"863112965",2082,"school","St Peter's H S S Kolenchery"
"5803",77.1872725,32.2673749,"864915436",2082,"school",NA
"5821",75.019995,12.541166,"870707624",2082,"school","GUPS Hidayathnagar"
"5837",75.5311128,30.3632046,"871754550",2082,"school","Baba Ala Singh School"
"5855",77.1783125,28.5977374,"883881204",2082,"school",NA
"5862",80.2558994,13.0015722,"884737571",2082,"school",NA
"5865",80.1260391,17.2760899,"885717996",2082,"school","Kendriya Vidyalaya Khammam"
"5889",78.4445973,17.4135412,"890303727",2082,"school","Springfields School"
"5906",78.5791906,17.4801215,"894000353",2082,"school","MRR School"
"5912",77.1767911,32.2467472,"894440250",2082,"school","Delhi Public School"
"5939",73.8214612,15.4973576,"907974939",2082,"school",NA
"5967",75.8688962,30.8492086,"916531826",2082,"school","Sant Isher Singh Public School,Nursery-12th (PSEB)"
"5968",75.8622633,30.8548973,"916531837",2082,"school","Nankana Sahib Public School (CBSE),Gill Park,Ludhiana"
"5971",75.8702901,30.8522345,"916531852",2082,"school","Dashmesh Public Sr. Sec. School(Nursery-12th)"
"5979",75.8553248,30.8633964,"916539545",2082,"school","Aanganwadi centre no.2"
"5980",75.8450082,30.8728925,"916542082",2082,"school","Govt. Primary School"
"5983",75.8658473,30.8648408,"916542415",2082,"school","Teja Singh Primary School"
"5988",75.8647568,30.8655211,"916547685",2082,"school","Government elementary school"
"5994",75.8636064,30.8660986,"916548833",2082,"school","Junior World Preparatory School"
"5996",75.8534737,30.8655333,"916549320",2082,"school","Government Primary School no.9"
"6002",75.8620103,30.9088358,"916550339",2082,"school","Wylie Memorial High School"
"6004",75.8650514,30.9085052,"916550352",2082,"school","St. Thomas Sr. Sec. School"
"6015",75.8548882,30.9092616,"916860616",2082,"school","Khalsa National Sr. Sec. School,Shahpur Road"
"6023",75.8406633,30.8719602,"917642838",2082,"school",NA
"6037",75.8765454,30.8700363,"917854757",2082,"school","Shri Harkrishan sahib public Senior Secondary"
"6039",75.8700068,30.8652015,"917854772",2082,"school","Nightingale Sen. Sec. School"
"6040",75.8750105,30.8689764,"917857733",2082,"school","ATM Jain Public School"
"6080",75.8666399,30.8623002,"918309731",2082,"school","Honey Training School"
"6099",75.8647998,30.8616185,"918309803",2082,"school","Sant Teja Singh Sutaantar Memorial school"
"6109",75.8838035,30.8615977,"918355991",2082,"school","G N D Public School"
"6110",75.8813992,30.8615969,"918355997",2082,"school","S D M High School"
"6111",75.8854234,30.8605363,"918356002",2082,"school","Krishna Convent School, Daba , Lohara Road"
"6112",75.8848832,30.8615939,"918356006",2082,"school","Sh. S. R. M. Public Sr. Sec. School"
"6124",75.8624566,30.8684002,"918520944",2082,"school","International Public School"
"6126",75.8633001,30.8667319,"918520948",2082,"school","Jyoti Play Way School & Tution Center"
"6138",75.8632088,30.8662852,"918521026",2082,"school","Muskan Special School(for Mentally, Phusically, Handicapped & Autistic children)"
"6139",75.8637071,30.8674941,"918521042",2082,"school","New Central Public School"
"6167",75.8890427,30.8500833,"918783049",2082,"school","Bhagat Singh Public School Road"
"6172",75.8775518,30.8509023,"918783081",2082,"school","Star Public School Lohara"
"6174",75.8881253,30.8484183,"918783182",2082,"school","GOVT.Primary School Lohara"
"6176",75.8804762,30.8646296,"919339703",2082,"school","SDM School"
"6184",75.8659808,30.8656766,"919342285",2082,"school","Teja Singh Sutantar Memorial Girls School"
"6188",75.8658202,30.8653862,"919347289",2082,"school","T.S.M.; Public school"
"6196",75.8794317,30.8750976,"919355491",2082,"school","MerryMint School"
"6202",75.8524122,30.8644424,"919375165",2082,"school","Guru Amar Das Senior Secondary School"
"6203",75.8866687,30.8576088,"919379368",2082,"school","Indian Public School"
"6208",75.867017,30.8731467,"919388071",2082,"school","Shri Harkrishan sahib public Senior Secondary School"
"6215",75.8377023,30.857976,"919391165",2082,"school","Akanksah Institute"
"6217",75.8797126,30.8771361,"919393124",2082,"school","NMerry Mint Public School"
"6222",75.8622982,30.8777204,"919438493",2082,"school","Guru Nanak Senior School"
"6223",75.8601,30.8776885,"919438498",2082,"school","Nanakana sahib Model High School"
"6224",75.8677528,30.8805455,"919438499",2082,"school","Shri Waheguru Public School"
"6225",75.8669909,30.8727822,"919438502",2082,"school","Shri Harkrishan Public Senior Secondary School"
"6226",75.8639086,30.8779882,"919438510",2082,"school","New Central Model High School"
"6235",75.8866671,30.8576065,"919471636",2082,"school","Indian Public School"
"6244",75.8335507,30.8628137,"919484013",2082,"school","BCM School"
"6246",75.8471185,30.8782461,"919486252",2082,"school","Sri Guru Harkrishan Public School"
"6247",75.19987,12.7577747,"919574663",2082,"school","Vivekananda School Tenkila"
"6284",75.8636335,30.8661479,"919601793",2082,"school","Junior's Worlds Playway"
"6299",75.8649299,30.8664447,"919601834",2082,"school","21st Centre(Institute of success thinking)"
"6324",75.5640015,30.3711353,"919729564",2082,"school","S.B.S. Public School"
"6326",75.5639779,30.3707018,"919729570",2082,"school","Shaheed Bhagt Singh Public School"
"6329",75.5412846,30.3767233,"919729584",2082,"school","Y.S. Public School"
"6334",80.149545,17.2297715,"920568822",2082,"school","Sai"
"6351",75.0966128,12.7647237,"922424377",2082,"school","VJEMS"
"6355",75.1022143,12.7730171,"922427697",2082,"school","Government College"
"6357",75.7255156,30.9119877,"923118481",2082,"school","Guru Nanak Public School, Branch:-Birmi"
"6363",75.1118184,12.805784,"925525258",2082,"school","Babanakatte Primary School"
"6364",75.1100589,12.8190076,"925526708",2082,"school","Bantrtinja School"
"6366",76.7204163,32.6716796,"926001460",2082,"school","Government Primary School, Arat"
"6368",76.857443,32.8718859,"926171117",2082,"school","Government Primary School, Khanjer"
"6402",77.1789302,33.2678709,"926705007",2082,"school","Phukthal Gompa School"
"6430",75.9638249,30.6881116,"928509622",2082,"school","Govt Senior secondary school-lehal"
"6464",75.9411945,30.7268577,"928999513",2082,"school","spoken english centre"
"6511",75.8917512,30.7798332,"929037076",2082,"school","Guru Harkishan Public School, Ghawaddi"
"6514",75.946754,30.7358668,"929037089",2082,"school","Govt Senior Secondary School"
"6528",75.8595057,30.8533928,"929042199",2082,"school","Nankana Sahib Public School"
"6530",75.8777283,30.8701389,"929255969",2082,"school","G.N.D.English Public"
"6531",75.8787779,30.8706406,"929255992",2082,"school","Bal Vidya Mandir"
"6536",72.8273283,19.1411333,"929764418",2082,"school","Ashok Academy"
"6538",73.3416,18.8382,"929988979",2082,"school","BidKhurd"
"6539",75.8824425,30.8642754,"932056076",2082,"school","GND Public school"
"6543",75.8832836,30.8641428,"932056171",2082,"school","Sri S.R.Memorial Public Sr. Sec. School"
"6559",80.1853388,13.0442984,"934859077",2082,"school","La Chatlaine"
"6607",80.2139192,13.0745115,"941467495",2082,"school","Kolla Perumal (KPVCSS)"
"6635",76.3347034,9.9777035,"944905500",2082,"school","KMUP School Eroor"
"6640",80.1435203,17.2469728,"945711988",2082,"school","Elite english"
"6648",75.8738296,30.8658569,"947886793",2082,"school","Akal sahai Convent School"
"6695",77.6116922,12.9141469,"949313546",2082,"school","New St Joseph's Primary School"
"6711",75.8684688,30.8655563,"949870187",2082,"school","Guru Teg Bahadur Mission Sen. Sec. School"
"6712",75.8737209,30.8646684,"949892005",2082,"school","G.H.G Khalsa High School"
"6725",75.835238,30.868763,"949941213",2082,"school","Satpal Mittal School"
"6746",80.149466,13.1285206,"953110024",2082,"school","Velammal School (Ambattur)"
"6748",77.543378,12.9381024,"953435253",2082,"school","Auden Public School"
"6751",77.5410813,12.9378918,"953648438",2082,"school","Shanthiniketana School"
"6759",77.5438574,12.9326861,"953685844",2082,"school","Auden School"
"6764",76.5410154,32.1331346,"954378299",2082,"school","Government Primary School, Bundla"
"6766",76.5411808,32.1325332,"954378465",2082,"school","Government Senior Secondary School, Bundla"
"6767",76.5407233,32.1334826,"954378485",2082,"school","Green View Senior Secondary School, Bundla"
"6770",77.5543633,12.9408565,"954625176",2082,"school","Viviekananda School"
"6785",77.5810644,13.1048022,"959252342",2082,"school","drishya"
"6793",77.5801929,13.1026071,"959499319",2082,"school","Kendriya Vidyalaya - RWF"
"6808",77.7183953,12.9846765,"962904402",2082,"school","SM English School"
"6810",76.6220971,9.8592747,"963684916",2082,"school","Karamala School"
"6813",80.1598691,13.0339507,"966259335",2082,"school","Porur Government High School"
"6837",75.8788536,30.8718526,"970343896",2082,"school","Spring Dale Public"
"6871",76.6465135,9.7236141,"973859854",2082,"school","St. Antonys UPS"
"6882",80.1455527,17.2346685,"974449759",2082,"school","Krishna Prasad Memorial High School"
"6894",95.319561,27.364888,"975754089",2082,"school","St. Xavier's Higher Secondary School"
"6897",75.9181302,30.8626426,"976454849",2082,"school","S.G.D Grammer School"
"6903",95.3262363,27.3591795,"977293068",2082,"school","Madhya Zaloni Primary School"
"6904",95.3284261,27.3344746,"977423735",2082,"school","Tipling Ghat High School"
"6922",95.334356,27.330619,"978142418",2082,"school","Jatiyo Vidyalaya"
"6931",94.9138784,27.1833792,"980057170",2082,"school",NA
"6978",77.7186169,12.9838469,"981899414",2082,"school","Government Primary School"
"6993",80.1281637,12.9674323,"983957835",2082,"school","Sarada Matriculation School"
"6996",80.1263205,12.9660634,"983959722",2082,"school","Ammaniammal School"
"7017",72.8548539,19.1625315,"984985842",2082,"school","Nandadeep Vidyalay"
"7021",77.677251,12.984052,"985254852",2082,"school","Saraswati Vidya Mandir"
"7025",77.679021,12.985118,"986732874",2082,"school","Mother Montessori House of Children Pre-school"
"7073",80.148685,17.4442459,"988852069",2082,"school","Zilla Parishad High School"
"7076",77.75306,12.969886,"989770912",2082,"school","Government School"
"7079",76.9442632,8.4988465,"990813572",2082,"school","OCS Learning"
"7095",76.3262983,32.2369086,"994331173",2082,"school","Yongling School"
"7106",76.6435796,9.7481071,"995136022",2082,"school",NA
"7117",76.6521799,9.6992774,"997575961",2082,"school","Technical School Pala"
"7121",76.6085811,9.6845962,"997581751",2082,"school","NSS HS Kidangoor"
"7148",80.2104214,12.9831591,"1003378082",2082,"school","Bala Saravana Matriculation School"
"7149",78.3911876,17.4015656,"1003618528",2082,"school",NA
"7156",74.8566366,31.6406635,"1004752584",2082,"school","Government Girls College"
"7157",74.8483861,31.6458789,"1004752589",2082,"school","Kendriya Vidyalaya No 1"
"7158",74.8580635,31.6623818,"1004767320",2082,"school","Sri Guru Harkishan International School"
"7159",74.8539973,31.6605827,"1004767328",2082,"school","Baba Ishar Singh School"
"7176",72.9819069,19.2567622,"1007294495",2082,"school","Hiranandani Foundation School"
"7177",80.1380798,17.2300037,"1007389001",2082,"school","Geetanjali"
"7196",73.7838017,18.5463629,"1011184893",2082,"school","Lokseva CBSE School"
"7204",76.9163538,8.4907132,"1011448275",2082,"school",NA
"7238",77.1790652,31.1080327,"1012239810",2082,"school","Auckland House School"
"7239",77.1789131,31.1093435,"1012239812",2082,"school","Auckland House School"
"7242",80.3052778,26.4658333,"1012264148",2082,"school","Mariampur School"
"7247",95.3177778,27.3575,"1012351078",2082,"school","Paschim Zaloni L.P.School"
"7253",95.3219444,27.3530556,"1012407228",2082,"school","Rashtra Bhasha School"
"7255",77.1601558,31.1120134,"1012633932",2082,"school",NA
"7259",95.3453636,27.3543351,"1013078782",2082,"school","Kendriya Vidhyalaya"
"7260",95.3321189,27.3554833,"1013336624",2082,"school","Poorab Zaloni Primary School"
"7268",95.358721,27.4833465,"1014510606",2082,"school","Kendriya Vidhyalaya"
"7274",95.3509533,27.4894664,"1014526730",2082,"school","Bengali Girls High School"
"7275",95.3567362,27.4896663,"1014526763",2082,"school","Sarvajanin Valika Vidyalaya"
"7276",95.3583245,27.4889778,"1014526768",2082,"school","Budding Buds Senior Secondary School"
"7277",95.3578091,27.4858878,"1014526771",2082,"school","Tinsukia Railway High School"
"7278",95.3498054,27.4978415,"1014526775",2082,"school","Pinewood Residential School"
"7279",95.3556204,27.4897234,"1014526791",2082,"school","Adarsha Prarthamic Vidyalaya"
"7280",95.3648686,27.4941965,"1014538800",2082,"school","Bipin Bora Middle English School"
"7281",95.3648579,27.4938729,"1014538805",2082,"school","Gobardhan Gowenka Primary School"
"7283",95.3644073,27.4940062,"1014538815",2082,"school","Bipin Bora High School"
"7285",95.3608239,27.4910178,"1014538822",2082,"school","Senairam Higher Secondary School"
"7287",80.1774604,13.0301954,"1015568367",2082,"school","Assisi School"
"7291",80.1996798,13.0397071,"1015578645",2082,"school","PSBB School"
"7292",80.1976842,13.0382542,"1015585631",2082,"school","Sri Krishna Swamy Mat. Hr. Sec. School"
"7295",95.3369093,27.4882291,"1015801497",2082,"school","Holy Child School"
"7296",95.3422415,27.4974037,"1015801499",2082,"school","Sabananda High School"
"7305",77.5865932,12.9273921,"1015924244",2082,"school","Geeta HPS"
"7306",77.5925109,12.9217736,"1015924248",2082,"school","Holy Saint English School"
"7307",77.5846934,12.923826,"1015924261",2082,"school","Holy Christ English School"
"7308",77.5874849,12.9340338,"1015924266",2082,"school","Saraswati Vidya Mandir"
"7309",77.5846782,12.9240904,"1015924279",2082,"school","MES High School"
"7310",77.5940984,12.9251446,"1015924283",2082,"school","Sudarshan Vidya Mandir"
"7311",77.5816474,12.9229013,"1015924294",2082,"school","Good Shepard School"
"7313",77.5778773,12.9271452,"1015924308",2082,"school","Nehru Smaraka Vidya Kendra"
"7314",77.5841184,12.9387689,"1015924313",2082,"school","Community English High School"
"7323",95.3124905,27.3648786,"1021860647",2082,"school","Lal Bahadur Shastri School"
"7330",79.7019346,12.8401271,"1024048076",2082,"school","SSKV School"
"7336",95.3615642,27.4997924,"1024398608",2082,"school","Don Bosco High School"
"7363",95.3533583,27.4864192,"1025792261",2082,"school","Hindi English High School"
"7366",76.7599823,9.7076538,"1026208600",2082,"school","Government L. P. School"
"7370",76.7607519,9.7083612,"1026208663",2082,"school","St. Antony's H. S. S."
"7381",72.8229491,18.9490299,"1029434267",2082,"school","St Sebastian Goan High School"
"7382",95.3338677,27.3553785,"1029536422",2082,"school","DPS"
"7418",76.7260802,9.7001447,"1038098433",2082,"school","Sacred Heart Girls' HSS"
"7419",76.7261419,9.7016835,"1038098434",2082,"school","St. Mary's Boys' HSS"
"7449",77.1086463,13.3431851,"1039405439",2082,"school","Sarvodaya PU College"
"7503",77.1046444,13.3360412,"1040624005",2082,"school","Bishop Sargeant School & College"
"7529",80.2606515,12.9515892,"1044780333",2082,"school","German School Chennai"
"7547",78.4945931,17.4619298,"1050823750",2082,"school","Butterflies"
"7548",78.4968247,17.4617866,"1050823766",2082,"school","Gunrock Enclave High School"
"7558",76.8732762,9.0542652,"1051326646",2082,"school","Govt. UP School Kamukumchury"
"7559",76.8727289,9.0513588,"1051327938",2082,"school","Govt. LP School Kamukumchury"
"7568",76.8495614,9.0268389,"1051399908",2082,"school","Govt. LP School Kunnikodu"
"7617",85.1866003,19.7131378,"1052042303",2082,"school","Chilika School"
"7638",77.312383,9.0115007,"1056101996",2082,"school","Hindu Middle School"
"7647",78.5346675,17.4260406,"1058611114",2082,"school","Sandeepam Vidyalaya,tarnaka"
"7679",73.7459281,18.6730544,"1065031999",2082,"school","Kendriya Vidyalaya No. 2 Dehu Road"
"7680",73.734105,18.6770184,"1065032000",2082,"school","Mahatma Gandhi Marathi Vidyalaya"
"7682",73.7663392,18.6571621,"1065032009",2082,"school","Kirti Vidyalaya High School"
"7698",79.1593051,12.9706256,"1065139316",2082,"school","Technology Tower"
"7699",79.1548261,12.9698806,"1065140247",2082,"school","G D Naidu Building"
"7702",79.1549651,12.9691331,"1065220922",2082,"school","CDMM Building"
"7709",79.1638378,12.971151,"1065254700",2082,"school","Silver Jubilee Tower"
"7720",78.4910979,17.4619332,"1066040577",2082,"school","Sunflower School"
"7723",77.7314095,12.963367,"1066041424",2082,"school","The Dunmore House Preschool"
"7724",77.7328021,12.962748,"1066041440",2082,"school","Bright Beginnings Preschool"
"7752",80.2777394,13.0885001,"1069491369",2082,"school","SSV Hr Sec School"
"7753",80.2772191,13.0883355,"1069491576",2082,"school","AB Parekh Hr Sec School"
"7768",78.5355648,17.4260484,"1070473380",2082,"school","Sandeepamn Vidyalaya"
"7777",76.5789089,9.7216353,"1071220493",2082,"school","Govt H. S. S Vayala"
"7780",76.5618695,9.7545756,"1072238253",2082,"school","St. Marys Girls Kuravilangad"
"7798",77.7476906,12.9625721,"1078316967",2082,"school","Neev School"
"7815",79.1577112,12.9692156,"1080460892",2082,"school","Hexagon block"
"7816",79.1558913,12.9691937,"1080462155",2082,"school","Main building"
"7821",77.5678863,12.9402442,"1080728432",2082,"school","APS Public School"
"7827",74.9947433,12.5240269,"1081631155",2082,"school","Sri Gopalakrishna High School, Kudlu"
"7841",77.5069678,13.0548557,"1085786938",2082,"school","Triveni School"
"7843",77.5073111,13.0597051,"1085786958",2082,"school","Vijayashree International Public School"
"7844",77.5502862,12.9095131,"1085786963",2082,"school","Bangalore International Public School"
"7848",95.355792,27.5079288,"1085804576",2082,"school","St. Stephen's High School"
"7860",80.1176105,17.2235161,"1088550827",2082,"school","Mandal Parishad Primary School"
"7881",77.7250546,12.9781581,"1093355147",2082,"school","Jetking Computer Hardware and Networking"
"7903",77.5939566,13.0592352,"1097927623",2082,"school","Green Country Public School"
"7905",77.757102,12.9823448,"1099768814",2082,"school","Whitefield Global School"
"7910",77.5789046,12.9910826,"1101617173",2082,"school","Gandhi Nagar High School"
"7919",75.3273598,31.0910306,"1104391458",2082,"school","ITI shahkot"
"7926",77.6013225,13.1234396,"1107491516",2082,"school","Ryan International School"
"7927",77.5441469,12.9697541,"1107947494",2082,"school","Government School"
"7936",77.5417627,12.9655564,"1108003748",2082,"school","The New Cambridge High School"
"7983",73.7949421,18.5114263,"1109210916",2082,"school","New India School"
"7986",76.4644741,9.9021894,"1111332678",2082,"school","Govt V H S S Maneed"
"7987",76.4691774,9.8946312,"1111333782",2082,"school","Govt L P School Maneed"
"7990",76.4658658,9.9455237,"1111349419",2082,"school","Govt H S S Poothrikka"
"7991",76.4565141,9.9292132,"1111350551",2082,"school","Azad Memorial L P School Ezhakkaranad"
"7995",76.464858,9.9955675,"1111438306",2082,"school","St Peter's Senior Secondary School Kadayiruppu"
"8010",77.1842457,28.573859,"1116432336",2082,"school","Govt. Girls Senior Secondary School"
"8011",77.1783234,28.5697886,"1116433509",2082,"school","DPS International School"
"8012",77.1781517,28.5712962,"1116434111",2082,"school","Jose Martin Sarvodya Vidyalya"
"8019",76.7781592,9.919944,"1116485255",2082,"school","Holy Family Lower Primary"
"8035",73.0150362,19.0587505,"1121951666",2082,"school","Ryan international school"
"8048",76.6473735,9.8247594,"1123637796",2082,"school","St. Thomas School Neeranthanam"
"8049",76.7159368,10.051169,"1123684914",2082,"school","LFHS oonukal"
"8095",77.748098,12.979677,"1126186796",2082,"school",NA
"8097",77.745497,12.969133,"1126189761",2082,"school","Delhi Public School"
"8101",80.2143813,13.0538146,"1127295227",2082,"school","Janaki Ramachandran Matriculation Scool"
"8118",77.2466095,28.5481486,"1135153755",2082,"school","Guru Harkrishan Public School"
"8161",76.0243098,10.8286707,"1142040010",2082,"school","MES Engineering College Campus School"
"8162",72.8553881,19.1644938,"1142182289",2082,"school","Muncipal Pahadi School"
"8175",76.731002,9.6359693,"1143532125",2082,"school","Kuruvikkoodu LP School"
"8177",76.7234188,9.6826249,"1143631927",2082,"school","KTJM HSS"
"8288",75.9401091,10.7849874,"1152798337",2082,"school","Vijayamatha English Medium High School"
"8298",77.3756077,28.644749,"1153089458",2082,"school","Ralli International"
"8299",77.3801246,28.6457376,"1153089833",2082,"school","DPS Indirapuram"
"8300",77.3764446,28.6475454,"1153090437",2082,"school","DPS Indirapuram"
"8302",77.0087579,10.331831,"1153095429",2082,"school",NA
"8339",79.7088869,12.8458385,"1157066885",2082,"school","Maria Auxilium hr. sec"
"8340",79.6973319,12.8400748,"1157072973",2082,"school","Royal Matriculation"
"8369",75.3802528,31.3743169,"1160838323",2082,"school","SAinik School Kapurthala"
"8417",78.4270626,17.4665149,"1166215301",2082,"school",NA
"8461",72.8497273,19.1683745,"1168348915",2082,"school","St. Thomas School"
"8462",72.8500761,19.1693345,"1168348939",2082,"school","St. Thomas School Ground"
"8463",74.7888839,33.0995808,"1168457081",2082,"school","Primary School"
"8499",78.1578767,30.3970789,"1171894758",2082,"school",NA
"8500",72.8347112,18.9869851,"1172494628",2082,"school","Shree VLN High School"
"8527",77.5701799,13.0008128,"1176722324",2082,"school","Ubhaya Vedanta Pravarthana Sabha"
"8582",80.0989678,13.1111306,"1185701481",2082,"school","Nazereth Metriculation School"
"8604",72.8471435,19.1672255,"1186881337",2082,"school","A.B.Goregaonkar English School"
"8647",77.6292984,10.2799262,"1191337468",2082,"school","Govt Higher Secondary School"
"8653",77.6300207,10.2837449,"1191341995",2082,"school","Govt Primary School"
"8654",77.6158427,10.2678573,"1191341996",2082,"school","Vivekananda Vidyala Matriculation School"
"8657",77.6253659,10.2732173,"1191341999",2082,"school","Govt Primary School"
"8666",82.1479237,22.0795213,"1192402624",2082,"school",NA
"8669",77.1941388,28.5663367,"1194037559",2082,"school","Green Fields School"
"8690",74.8348249,12.8893137,"1197417760",2082,"school","St. Aloysius English Medium School"
"8691",74.8356081,12.888843,"1197417781",2082,"school","Ladyhill Victoria Girls High School"
"8696",74.8389292,12.8740909,"1197417873",2082,"school","Canara High School Main (Boys)"
"8707",73.097137,19.209637,"1199843269",2082,"school","Shantinagar School"
"8714",77.9331922,10.2796308,"1202688483",2082,"school","Gandhi Gram Rural University"
"8735",80.1538894,17.2546378,"1205609146",2082,"school","Little angels"
"8752",77.1686468,28.6016242,"1210316392",2082,"school","Army Public School, Dhaula Kuan"
"8765",73.881898,18.500656,"1214698509",2082,"school","Hutchings High School"
"8773",78.3660796,17.4611786,"1215221503",2082,"school","Gautham Grammar High School"
"8816",73.5333989,25.3151972,"1215848977",2082,"school",NA
"8817",73.5342733,25.3160895,"1215848979",2082,"school",NA
"8835",73.8816048,18.4869487,"1223063934",2082,"school","Kendriya Vidyalaya"
"8860",85.874082,20.4571676,"1224875500",2082,"school","Rajabagicha City Highschool"
"8872",77.4974982,12.9022641,"1228960967",2082,"school","BGS Public School"
"8873",73.7810899,18.5982157,"1229054871",2082,"school","Wisdom International School"
"8877",76.3238049,32.2373067,"1230142195",2082,"school","TCV Day School"
"8883",73.8839949,18.5092631,"1232185660",2082,"school","Saint Mary's High School"
"8898",83.6153342,25.4297882,"1233577992",2082,"school","High School"
"8900",83.6200754,25.4287613,"1234550644",2082,"school","sun rise public school"
"8915",72.8123965,21.1860732,"1236209052",2082,"school","Tapidas & Tulsidas Varajdas School"
"8924",76.7232986,8.7571006,"1237509843",2082,"school","Government Muslim Senior Secondary School, Nadayara"
"8944",79.7380005,12.8164923,"1238859838",2082,"school","Pachaiyappa's College For Men"
"8945",75.5466062,30.3752945,"1239003780",2082,"school","PTU Learning Center"
"8959",72.643273,23.2122934,"1241884683",2082,"school","Choudri College"
"9005",74.0385649,30.3850755,"1248149689",2082,"school","AV Public School"
"9008",74.0200562,30.4002266,"1248157517",2082,"school","PAU Sr. School"
"9031",74.0276755,30.4135027,"1248373044",2082,"school","D.C. D.A.V. Model School"
"9037",74.0278453,30.4116861,"1248402242",2082,"school","Govt. Sr. Sec"
"9055",78.4515263,13.6393505,"1252069848",2082,"school","Rishi Valley Rural Education Center"
"9064",84.0141541,21.8380078,"1254525493",2082,"school","GOVT HIGH SCHOOL"
"9091",79.6996851,12.8218767,"1265747380",2082,"school","District Cooperative Training Institute"
"9098",69.7110092,23.237918,"1268357930",2082,"school","M.S.V. HIGH SCHOOL, MADHAPAR"
"9099",69.7075433,23.2313544,"1268367815",2082,"school","SARASWATI VIDHYALAYA, MADHAPAR"
"9107",73.8535006,24.6203423,"1268917156",2082,"school","Geetanjali Institute of Pharmacy"
"9132",78.5211267,17.5204725,"1271903169",2082,"school","Paul's School"
"9189",77.6473577,12.9185748,"1280967981",2082,"school","Cambridge School"
"9190",77.6452115,12.9077934,"1280986765",2082,"school","Cambridge School ICSE"
"9199",78.9529372,22.0697497,"1281212769",2082,"school","PG College Chhindwara"
"9202",78.9407814,22.0608308,"1281212906",2082,"school","St. Joseph School"
"9213",88.3728451,22.5595068,"1283776632",2082,"school","Loreto Convent"
"9238",77.5688174,13.0064465,"1289827518",2082,"school","Hymamshu Jyoti Kala Peetha"
"9242",77.5702335,13.0020924,"1289835601",2082,"school","Vidya Mandir School"
"9243",77.5685652,12.9989458,"1289835604",2082,"school","Bangalore Education Society"
"9253",77.5614979,13.0092904,"1290107608",2082,"school","Nirmala Rani High School"
"9271",73.7898664,15.5878804,"1290475072",2082,"school","Don Bosco Youth Welfere Centre"
"9278",80.318127,26.470832,"1291414947",2082,"school","St Xaviers High School"
"9298",73.0363552,26.2616007,"1296898947",2082,"school","Gregorios"
"9342",77.7154634,28.9919388,"1301154990",2082,"school","Meerut college"
"9391",80.189912,13.0247563,"1306385769",2082,"school","Amrita Vidyalaya"
"9396",75.8630342,30.8468446,"1307190070",2082,"school","Govt. Girls Elementary School"
"9420",76.7973849,11.3556469,"1311590151",2082,"school","St Anthony's"
"9421",77.7074334,12.8395522,"1311739551",2082,"school","Ebenezer International School"
"9505",76.6712454,11.3935964,"1326279044",2082,"school","Manjur"
"9519",75.8736152,31.5007626,"1328106798",2082,"school","GEMS CAMBRIDGE INTERNATIONAL SCHOOL"
"9521",76.1980975,32.2812707,"1328198210",2082,"school","Government Senior Secondary School, Darini"
"9522",76.1997875,32.2795925,"1328198367",2082,"school","Vanshika Public School"
"9562",75.4361861,31.2075734,"1329283593",2082,"school","Tagore"
"9564",77.1717495,31.0954257,"1329310453",2082,"school","HALL"
"9565",77.1722448,31.0956173,"1329310456",2082,"school","MIDDLE BLOCK"
"9567",77.1719425,31.0954374,"1329310461",2082,"school","SENIOR BLOCK"
"9568",77.1721491,31.0954815,"1329310464",2082,"school","ST. EDWARD'S SCHOOL"
"9571",74.9529688,30.2184191,"1329319014",2082,"school","D.A.V PUBLIC SCHOOL"
"9572",80.2024966,12.9284826,"1329321951",2082,"school","St Peters School"
"9580",80.2016416,12.9079132,"1329326250",2082,"school","Bharatha Vidhyalaya School"
"9584",80.1982298,12.9242267,"1329336746",2082,"school","Pallikarani Govt Higher Secondary School"
"9585",74.2635971,30.6278884,"1330372008",2082,"school","Sacred heart convent school"
"9587",74.25855,30.6064459,"1330372713",2082,"school","Govt. girls school"
"9590",74.2642435,30.6102067,"1330377702",2082,"school","Govt. boys school"
"9594",75.9206447,30.0409867,"1330403806",2082,"school","Sant  Ishar Singh  School"
"9600",80.2003719,12.9253386,"1330443392",2082,"school","Asan Memorial College"
"9603",76.0506403,29.954353,"1330445280",2082,"school","Guru Teg Bahadur Public Senior Secondary School"
"9606",76.0486326,29.9517931,"1330453516",2082,"school","Vctoria public school"
"9617",74.2614164,30.6051167,"1331289622",2082,"school","D.A.V sen.sec. pub.school"
"9635",77.5581363,12.9119447,"1331946766",2082,"school","Prarthana School"
"9639",77.5411424,12.8886669,"1331959282",2082,"school","Gubbalala School"
"9640",74.2534876,30.5974473,"1331977542",2082,"school","Shivalik public school"
"9642",74.2636693,30.6045626,"1332009902",2082,"school","Anand jyoti public school"
"9647",79.4617653,29.3753312,"1332264553",2082,"school","Long View Public School"
"9648",79.4600942,29.3750165,"1332264554",2082,"school","Saint Joseph's College"
"9649",79.4613499,29.375913,"1332264555",2082,"school","Saint Mary's Convent High School"
"9671",78.4955674,17.4523693,"1333758097",2082,"school","Kendriya Vidyalaya Picket"
"9679",77.5596739,12.8929689,"1334443053",2082,"school","Insight Academy"
"9758",76.93945,13.320736,"1339369302",2082,"school","Government Lower Primary School"
"9762",76.9383465,13.3095108,"1339369761",2082,"school","Government Lower Primary School"
"9763",76.9390287,13.3208146,"1339370213",2082,"school","Government Urdu Lower Primary School"
"9766",79.5471172,17.9953002,"1339383575",2082,"school","Raman High School"
"9767",79.5539648,17.998693,"1339386636",2082,"school","Vignan High School"
"9779",79.5545977,17.9999737,"1339417967",2082,"school","JMJ High School"
"9781",79.5505345,18.0033573,"1339480299",2082,"school","St. Peter's Central High School"
"9782",79.5492438,18.0035221,"1339480300",2082,"school","St. Peter's State Public School"
"9787",75.7734614,11.2540161,"1339815589",2082,"school","St. Angela's A U P School for Girls."
"9815",79.0174755,28.7843564,"1343050777",2082,"school","St. Paul's School"
"9816",79.0159842,28.7928001,"1343050797",2082,"school","GreenWood Puplic School"
"9892",72.8621618,19.1168545,"1345350824",2082,"school","Holy Family High School"
"9921",77.7361093,13.0724522,"1345786522",2082,"school","New Baldwin International Residential School"
"9939",74.6245439,30.9391597,"1346036220",2082,"school","Bal Kalyan Public School"
"9943",74.6239121,30.9384255,"1346046161",2082,"school","Khalsa Middle School"
"9944",74.6218377,30.9341786,"1346049488",2082,"school","DDB DAV school"
"9947",74.6231802,30.9379922,"1346049492",2082,"school","Manav Mandir School"
"9948",74.6224653,30.9358626,"1346050358",2082,"school","Dayanand Model School"
"9950",74.6218964,30.9313314,"1346061568",2082,"school","Manohar Lal Sr/Sec School"
"9955",74.621874,30.9242821,"1346169977",2082,"school","DAV Public School"
"9964",72.9076114,19.1178048,"1346569746",2082,"school","Hiranandani Foundation School"
"9965",72.9054871,19.1131214,"1346572033",2082,"school","Hiranandani School New"
"9994",72.8474592,19.192628,"1347702333",2082,"school","NL High School"
"9997",72.8412266,19.188526,"1347723684",2082,"school","Munciapl Corporation Liberty Garden school"
"10013",74.6177177,30.9296954,"1349314295",2082,"school","Sunshine Modern School"
"10020",74.62188,30.9309653,"1349619810",2082,"school","D.C.Model sr/sec School"
"10021",74.624187,30.9237054,"1349620875",2082,"school","Hindu Model School"
"10038",74.2573722,16.6662558,"1350362840",2082,"school","D Y Patil Shantiniketan"
"10052",72.8467515,19.2331345,"1352290055",2082,"school","Ajmera Global School"
"10057",72.8529645,19.2174331,"1354759161",2082,"school","Himalaya High school"
"10061",75.8599267,30.8450691,"1355443125",2082,"school","A Star Public School"
"10074",85.1406935,25.6194543,"1356107919",2082,"school","St Xavier's School, Patna"
"10086",85.1398562,25.6214565,"1356160326",2082,"school","Bankipore Girl's High School"
"10088",85.1511322,25.6196281,"1356165327",2082,"school","BN College"
"10101",76.0437447,30.7900468,"1357583585",2082,"school","RightWay Education, Doraha"
"10109",85.1542114,25.6203924,"1358935417",2082,"school","St Joseph's Convent School"
"10120",78.5427381,17.4167468,"1360401090",2082,"school","Johnson Grammar School"
"10121",78.544213,17.4187133,"1360401092",2082,"school","Narayana Junior College"
"10122",78.5479092,17.4178644,"1360401094",2082,"school","Zaheer Memorial"
"10127",72.8557645,19.19249,"1361567957",2082,"school","Sharda Gyanpeeth International School"
"10128",72.8569264,19.1904293,"1361576661",2082,"school","St. Joseph High School"
"10129",72.8563332,19.1893461,"1361576666",2082,"school","St. George High School"
"10131",72.8505882,19.1885552,"1361584423",2082,"school","Universal High School"
"10140",77.2667188,28.5603226,"1363453179",2082,"school","NIIT - New Friends Colony, South Delhi"
"10168",72.8476552,19.1578421,"1368753139",2082,"school","IB Patel School"
"10172",75.8232778,31.3774033,"1369639255",2082,"school","mount carmel school"
"10202",78.4573288,17.4593819,"1370770554",2082,"school","Institute of Aircraft Maintenance Engineering"
"10207",77.6064886,13.0365701,"1370783363",2082,"school","School"
"10209",77.6152751,13.0496561,"1370789889",2082,"school","Kensri School"
"10226",77.0787484,28.4616751,"1373657269",2082,"school",NA
"10237",77.0923268,28.6306526,"1374470927",2082,"school","Happy Model1"
"10239",77.0931851,28.6307373,"1374470949",2082,"school",NA
"10250",77.0866191,28.6190309,"1374470979",2082,"school","Kendriya Vidyalaya"
"10251",77.0940113,28.6300965,"1374470984",2082,"school","Sumermal Jain School"
"10253",77.1142789,28.6397485,"1374472994",2082,"school","Cambridge Foundation School"
"10271",77.0764443,28.4828754,"1375937804",2082,"school","Sherwood Convent"
"10325",74.1273186,14.8061459,"1378408094",2082,"school","St. Michael's Convent School"
"10328",77.080977,28.4850535,"1384029750",2082,"school","American Montessori"
"10367",78.6976864,10.832363,"1389427992",2082,"school","SVS/SRC group of school and college"
"10375",77.0612,28.418088,"1390067640",2082,"school","Kamla International"
"10423",76.2928714,9.9992237,"1399867121",2082,"school","Greets Public School"
"10426",76.7024061,11.4125127,"1400711462",2082,"school","xlquest"
"10437",75.7734889,11.2508847,"1405338164",2082,"school","Himayathul School"
"10442",75.775699,11.2652425,"1405380473",2082,"school","Providence Girls Primary School"
"10453",75.7508267,31.2389081,"1406003084",2082,"school","St.Joseph Convent"
"10477",77.2799953,28.6614428,"1414804440",2082,"school","Ratan Devi Girls Senior Sec. School"
"10497",72.8270575,19.1977249,"1416530124",2082,"school","Atharva College"
"10502",86.9691955,23.0740222,"1417302329",2082,"school","Araldihi High School"
"10504",86.9205538,23.1571509,"1417302375",2082,"school","Indpur Goenka High School"
"10513",72.9000005,19.0480373,"1417929824",2082,"school","Marathi Muncipal School"
"10515",77.1847609,32.2464511,"1418902118",2082,"school","Manali Model School"
"10539",77.0651743,28.4469205,"1420745420",2082,"school","St. Angels (Jr)"
"10540",77.0695058,28.4419185,"1420745423",2082,"school","St. Angels (Sr)"
"10542",76.7017867,9.7784947,"1421728128",2082,"school",NA
"10546",72.9769229,19.240641,"1423845064",2082,"school","St Xaviers High School"
"10553",76.982175,11.2740813,"1424890380",2082,"school","Shri Kumaran College of Arts and Science"
"10554",76.890231,11.2246984,"1424898667",2082,"school","Government Higher Secondary School, Bujanganur"
"10602",72.5699733,23.0113752,"1429887850",2082,"school","Exhibition & Spatial Design"
"10606",73.7771844,18.6565387,"1430553158",2082,"school","St. Ursula High School"
"10677",78.5334689,17.4510732,"1435322434",2082,"school","Balaji High School"
"10678",78.5341421,17.4516847,"1435322435",2082,"school","Durga Bhavani High School"
"10679",78.5340322,17.4505256,"1435322436",2082,"school","Zilla Parishad Boys High School"
"10680",78.5333857,17.4504309,"1435322437",2082,"school","Zilla Parishad Girls high School"
"10696",77.54553,12.9985552,"1436149504",2082,"school","Sri Aurobindo Vidya Mandir"
"10710",77.7537629,12.9844541,"1437213387",2082,"school","Divine Light Trust For The Blind"
"10720",78.5278602,17.4527246,"1437365108",2082,"school","Saraswati High School"
"10721",78.5265834,17.453134,"1437365116",2082,"school","Sarvodaya High School"
"10723",78.528005,17.4532108,"1437365125",2082,"school","Bhegas High School"
"10779",77.5817605,34.1530492,"1442218952",2082,"school","Govt. Boys Hr. Secondary School"
"10790",78.21856,12.488407,"1444121966",2082,"school","Nalanda Metric Higher Secondary School"
"10804",77.530001,12.962267,"1445333653",2082,"school","Global Chess Academy India"
"10805",75.7841719,31.0098434,"1446017400",2082,"school","convent school"
"10817",78.0509665,30.4722057,"1446558742",2082,"school","Central School for Tibetan"
"10819",78.0504951,30.469815,"1446757640",2082,"school","Tibetan Homes School"
"10820",80.2027713,13.0542812,"1446841958",2082,"school","Govt School"
"10821",80.2059776,13.0543125,"1446842407",2082,"school","Barathi Vidayala School - Block 1"
"10822",80.2061707,13.0538945,"1446842408",2082,"school","Barathi Vidayala School - Block 2"
"10846",78.4842629,17.3942194,"1447172299",2082,"school",NA
"10853",76.8268914,30.3405019,"1447314323",2082,"school","Govt. Police"
"10875",76.4019564,30.5992094,"1447314564",2082,"school","High School, Madhopur"
"10884",76.5380037,30.5193861,"1447314666",2082,"school","Govt. Elementry"
"10968",76.3272563,32.2356476,"1455063755",2082,"school","Learning and Ideas for Tibet (LIT)"
"10985",80.1457729,17.3160426,"1457540879",2082,"school","High School, Kamanchikalu"
"10991",79.0721278,10.7295728,"1457835224",2082,"school","Periyar Maniammai University (PMU)"
"10992",79.0153978,10.728418,"1457843429",2082,"school","SASTRA University"
"10996",77.603264,12.968353,"1459711459",2082,"school","Sacred Hearts Nursery School"
"11006",80.5884266,28.7099853,"1459847000",2082,"school","Aishwarya Vidya Niketan"
"11007",80.5821395,28.7056379,"1459877630",2082,"school","Trinagar School"
"11012",73.0927192,19.2136045,"1462083579",2082,"school","Tilak Nagar Vidya Mandir High School"
"11027",75.6388038,15.4416171,"1462179659",2082,"school","Loyola Convent School"
"11028",75.6387502,15.4380673,"1462186874",2082,"school","St John School"
"11034",77.5433661,13.064222,"1462235802",2082,"school","Kendriya Vidyalaya"
"11038",77.5445463,13.0474055,"1462246347",2082,"school","HMT Kinder Garden School"
"11039",77.5442244,13.0478654,"1462246349",2082,"school","Mallige School Of Nursing"
"11040",77.5439669,13.0441027,"1462247631",2082,"school","St. Claret PU College"
"11041",77.5451578,13.043392,"1462248328",2082,"school","Saint Claret School"
"11055",75.8819249,30.514547,"1462910941",2082,"school","Al-Falah Public school"
"11067",76.4629989,13.2626601,"1462994166",2082,"school","Government  Junior college for boys"
"11070",75.8385694,30.3093282,"1463005839",2082,"school","Vasant Valley Public School"
"11083",77.5254587,13.0055371,"1463492236",2082,"school","Mount Senora School"
"11087",77.5164143,12.9598924,"1463509629",2082,"school","Jindal Government School"
"11088",77.517911,12.9582352,"1463510108",2082,"school","Bangalore Blaze Girls High School"
"11095",77.5097624,12.9472252,"1463517317",2082,"school","Department of Botany"
"11096",77.5107012,12.9463312,"1463517556",2082,"school","Environment Science Department"
"11097",77.5100574,12.9461064,"1463518023",2082,"school","Department of Electronics"
"11098",77.508491,12.9466187,"1463518258",2082,"school","Zoology Department"
"11100",77.5070587,12.9461273,"1463519781",2082,"school","Department of Statistics"
"11101",77.5069944,12.9450137,"1463520024",2082,"school","Physics Department"
"11105",77.5035558,12.9466031,"1463521207",2082,"school","Psychology Department"
"11106",77.5029711,12.9434348,"1463522007",2082,"school","Department of Architecture"
"11107",77.5043765,12.942431,"1463522211",2082,"school","Engineering College"
"11111",77.5096122,12.9397438,"1463525039",2082,"school","Dr.Ambedkar Research Centre"
"11112",77.50855,12.9377048,"1463525671",2082,"school","Vice Chancellor's Lodge"
"11125",77.5134853,12.9286597,"1463556587",2082,"school","Rajarajeshwari Vidya Shala"
"11140",77.5271968,12.9125086,"1463584104",2082,"school","Swargarani"
"11143",77.5373087,12.9081687,"1463586819",2082,"school","Quality Nursing Institute"
"11145",77.5434456,12.9056118,"1463591334",2082,"school","Government School"
"11154",77.5812916,13.0990532,"1463617663",2082,"school","Poorna Prajna Education Center"
"11175",77.5905046,12.9170955,"1463771564",2082,"school","School"
"11179",77.5492982,13.0721308,"1463790590",2082,"school","Air Force School"
"11189",74.7326841,13.348073,"1463819858",2082,"school","Adiudupi Higher Primary School"
"11205",74.7517937,13.3353174,"1463849302",2082,"school","PPC UDUPI"
"11210",75.8095796,14.5073582,"1463987296",2082,"school","DRM school"
"11227",76.9444308,11.0257662,"1464278758",2082,"school","V V Vani Vidhyalaya"
"11236",76.9482725,11.0234569,"1464278820",2082,"school","Ramalinga Chettiar School (Govt Aided)"
"11239",76.9427471,11.0212454,"1464278878",2082,"school","Liseux Matriculation Hr Sec School"
"11242",76.9463252,11.0235622,"1464278890",2082,"school","Angappa Hr. Sec. School (CBSE)"
"11251",76.9503161,11.0298208,"1464770604",2082,"school","Amrit Special needs school"
"11290",77.6213478,12.9411429,"1464792933",2082,"school","Bethany High School"
"11296",79.1390713,10.7751783,"1464853748",2082,"school","Sacred Heart Girls Hr Sec School"
"11316",77.5638317,12.9328395,"1465007911",2082,"school","SSM Public School"
"11326",79.1400919,10.7730687,"1465030160",2082,"school","st antony's higher secondary school"
"11332",77.5537203,13.0049228,"1465059599",2082,"school","Indian Institute of Spirituality"
"11335",79.1116194,10.7685153,"1465083374",2082,"school","Nav Bharath Matriculation High school"
"11382",76.4559833,13.263381,"1465598590",2082,"school","Stella Maris School"
"11384",76.4583114,13.2624516,"1465608220",2082,"school","Kalpataru Science College"
"11386",76.4581773,13.2640023,"1465617232",2082,"school","PallaGatti advappa Arts & Commerce College"
"11388",76.4594806,13.2619553,"1465627035",2082,"school","Kalpataru Montessary"
"11396",76.466637,13.2592822,"1465648005",2082,"school","SVP School College and Nursing"
"11397",76.4667658,13.2604831,"1465648423",2082,"school","Government Degree College"
"11430",76.0838045,10.9035046,"1466006859",2082,"school",NA
"11443",77.5595723,12.9191955,"1466575039",2082,"school","Carmel"
"11447",77.5575982,12.9229392,"1466577860",2082,"school","Apollo Convent"
"11448",76.8836157,12.520482,"1466594300",2082,"school","Abhinava Bharathi School"
"11449",76.8884838,12.523577,"1466602327",2082,"school","Carmel Convent"
"11455",77.5927105,12.8706069,"1466634162",2082,"school","Loyola Primary School"
"11498",77.4712848,12.6806925,"1466743749",2082,"school","Government school"
"11520",75.8109024,26.9162251,"1466912423",2082,"school",NA
"11568",77.5664867,12.9339482,"1467778589",2082,"school","Kamala Nehru Patashala (Emmanual English School)"
"11579",75.6556752,16.1744616,"1467797410",2082,"school","CBSE School"
"11580",75.6563136,16.1743998,"1467797550",2082,"school","Basaveshwara School"
"11589",75.6625684,16.1805022,"1467818127",2082,"school","St Annie's Convent School"
"11624",77.5861639,13.0995417,"1467969799",2082,"school","Chaitnya nursing School"
"11724",77.550229,12.9373762,"1468446727",2082,"school","JHS school"
"11768",77.6454195,12.9122796,"1468908285",2082,"school","Cambridge School"
"11770",77.6447418,12.9091804,"1468908288",2082,"school","Gnan Shristi"
"11793",76.9316217,11.2991528,"1469066119",2082,"school","San Jose Matriculation Hr. Sec. School"
"11794",76.9480637,11.2805723,"1469070617",2082,"school","Metro Matriculation Higher Secondary School"
"11803",76.9895628,11.0778243,"1469107407",2082,"school","Kumaraguru College of Technology"
"11804",76.9987816,11.0851102,"1469109103",2082,"school","KGiSl Institute of Technology"
"11805",76.9974565,11.0835993,"1469109274",2082,"school","KGCAS"
"11806",76.9969282,11.0833572,"1469109484",2082,"school","KGISL Institute of Information Management"
"11812",76.998578,11.0829794,"1469149959",2082,"school","SeaSkills Maritime Academy"
"11818",76.9451655,11.1486507,"1469161361",2082,"school","Ramakrishna Mission Vidyalaya"
"11819",75.6922819,14.5740939,"1469172042",2082,"school","Rainbow Residential PU science College"
"11821",77.6120787,12.9955777,"1469183214",2082,"school","Seventh Day Adventist School"
"11823",77.6109656,12.9968818,"1469190367",2082,"school","Fathima's Girls High School"
"11839",77.6024335,12.9916626,"1469249201",2082,"school","HKBK Degree College"
"11842",77.6131994,12.9933042,"1469266907",2082,"school","St. Francis Xavier's High School"
"11843",77.6135802,12.992426,"1469266908",2082,"school","St. Joseph's Convent Girls High School"
"11844",77.6144766,12.9938162,"1469267174",2082,"school","Holy Angel's High School"
"11845",77.6141548,12.9926871,"1469267177",2082,"school","RTC Girls High School"
"11867",77.6384508,12.9246365,"1469643995",2082,"school","Kripanidhi Cambridge Public School"
"11873",77.6252612,12.8889212,"1469644048",2082,"school","St Francis ICSE school"
"11879",76.9848601,11.0009429,"1470337793",2082,"school","Nirmala Colleger For Women"
"11880",76.9735813,10.9988485,"1470349902",2082,"school",NA
"11922",76.9528836,11.0500591,"1470545645",2082,"school","Amrita Vidhyalayam (Matriculation)"
"11924",76.9463258,11.048063,"1470545671",2082,"school","Ramasamy Matriculation School"
"11925",76.967675,11.0512727,"1470545674",2082,"school","The Camford International School (CBSE)"
"11934",77.5726226,12.9333166,"1470553312",2082,"school","Sri Kumaran Children's Home"
"11935",77.5699296,12.9356689,"1470553332",2082,"school","SSM Primary School"
"11938",77.5717482,12.9329402,"1470553357",2082,"school","Kumaran Children's High School"
"11944",77.3381326,13.1465978,"1470591008",2082,"school","Sri Karithimmaraya Swamy High School"
"11972",77.3394684,13.1487605,"1470638463",2082,"school","Government Middle And Primary School"
"11980",76.9169992,11.0661062,"1470738328",2082,"school","Yuvabharathi CBSE School"
"11987",76.9378495,11.3046214,"1470789172",2082,"school","Goverment Girls High School"
"12000",76.9306424,11.3051922,"1470813024",2082,"school","Mahajana Hr. Sec. School"
"12002",76.9308972,11.2990822,"1470820938",2082,"school","Carwell Matric. Hr. Sec. School"
"12021",76.9582943,11.1828988,"1470925272",2082,"school","Thambu Higher Secondary School"
"12026",76.9434564,11.1481087,"1470949015",2082,"school","Swami Shivanandha High School"
"12042",77.619021,12.9384412,"1471128645",2082,"school","PNS school"
"12102",77.5524715,13.0038756,"1471781363",2082,"school","VVS Sardar patel High School"
"12107",77.3892126,13.097583,"1471781803",2082,"school","Nelamangala Government Junior College"
"12110",77.3925925,13.0974994,"1471782469",2082,"school","Vinayaka School"
"12111",77.3952798,13.0949758,"1471784094",2082,"school","Pavada Basavanna Devara Mata"
"12130",77.4008427,13.0926611,"1471817010",2082,"school","Vishal School"
"12137",77.3994908,13.0973531,"1471838156",2082,"school","Adichunchanagiri ITI college"
"12143",76.9515029,11.0225375,"1471862691",2082,"school","Avinashilingam Vocational Training Institute"
"12182",77.5982875,13.0583621,"1472121766",2082,"school","Sharada School"
"12205",74.7285283,16.350328,"1472156503",2082,"school","Government School"
"12211",74.4798232,15.8284432,"1472171811",2082,"school","Anganawadi and Marathi Medium School"
"12215",74.7398721,16.3458715,"1472177149",2082,"school","KMB High School"
"12221",76.9767729,11.0244052,"1472189593",2082,"school","Ramakrishna Institute of Pharamedical Sciences"
"12222",76.9762204,11.0243971,"1472189838",2082,"school","College of Pharamacy"
"12224",76.9764426,11.0221218,"1472190376",2082,"school","Siddha Naidu Matriculation School"
"12230",76.9609421,11.0129282,"1472205012",2082,"school","Suburban Higher Secondary School"
"12231",76.958268,11.0154056,"1472205751",2082,"school","North Coimbatore Corporation Higher Secondary School"
"12232",76.9425636,11.0172223,"1472210456",2082,"school","State Forest Service College"
"12250",76.3457364,9.9986196,"1472219204",2082,"school","Bhavans Adarsha Vidyalaya"
"12281",74.4875476,15.8152837,"1472270990",2082,"school","K. L. S. Gogte Institute of Technology"
"12282",83.3315061,17.7209547,"1472290462",2082,"school","Siva Sivani Public School"
"12286",75.5604198,15.4219482,"1472334898",2082,"school","R.T.E. Societys Rural Engineering College"
"12340",77.5478152,13.0092391,"1472808787",2082,"school","Little Lilly's English School"
"12347",77.5500142,13.0048841,"1472858787",2082,"school","PVP School"
"12348",77.5503415,13.0046175,"1472858796",2082,"school","VVS Gandhi Centenary School"
"12349",77.5547591,13.0037708,"1472858834",2082,"school","Sri Vani Education Society"
"12366",77.6162668,12.867378,"1472934583",2082,"school","Government Primary School Yelenahalli"
"12373",76.3304465,9.4987274,"1472937218",2082,"school","St. Joseph's Girls Higher Secondary School"
"12383",74.5013412,15.8351706,"1472978933",2082,"school","Nagajhari School"
"12384",77.5602348,12.9373055,"1472981138",2082,"school","Holy Child Convent School"
"12417",74.5012876,15.833563,"1473157546",2082,"school","Balika Adarsha School"
"12440",75.6410468,15.4351018,"1473221420",2082,"school",NA
"12441",75.6435517,15.4357637,"1473221434",2082,"school",NA
"12442",75.6428812,15.4319217,"1473221435",2082,"school",NA
"12457",76.942179,11.2994396,"1473263880",2082,"school","Holy Angels Primary School"
"12460",76.9517143,11.2926141,"1473264684",2082,"school","Holy Angels Matric. Hr. Sec. School"
"12463",77.6292768,12.9246182,"1473298104",2082,"school","St Francis School"
"12496",77.5554283,12.9264828,"1473772362",2082,"school","SSVM school"
"12499",77.5799866,12.9052334,"1473781134",2082,"school","Frank Public School"
"12574",77.5672085,12.9453673,"1473896401",2082,"school","Nevaditha school"
"12575",77.5651593,12.9444263,"1473897177",2082,"school","SSVM GP Branch"
"12584",77.5679644,12.9455787,"1473921785",2082,"school","BASE"
"12589",77.5346306,13.0004716,"1473930474",2082,"school","School"
"12635",79.9898712,14.4480504,"1474035636",2082,"school","Sri B Swami Doss English Medium High School"
"12636",79.9907376,14.4499621,"1474035785",2082,"school","Government School"
"12652",79.9948252,14.4526322,"1474038905",2082,"school","Government School Ac Nagar"
"12661",77.5411129,13.001119,"1474058074",2082,"school","Gautham College of Nursing"
"12662",77.5418961,13.001004,"1474058079",2082,"school","Anupama College"
"12664",77.5409358,13.0000789,"1474058087",2082,"school","Anupama English School"
"12687",76.3080792,10.0204298,"1474134594",2082,"school","Pius High School For Girls"
"12708",75.8127653,14.5184721,"1474199833",2082,"school","Vidyadayini School"
"12709",75.8082382,14.5198322,"1474200110",2082,"school","Mysore Kirloskar School"
"12711",76.3392529,9.9422633,"1474201436",2082,"school","SreeNarayana Vidyapeedam Public School"
"12712",75.8106951,14.5270504,"1474201840",2082,"school","M.K.E.T cbse Public School"
"12713",75.8117895,14.5285148,"1474202156",2082,"school","St. Mary School"
"12715",75.7859861,14.519948,"1474206638",2082,"school","Aditya Birla Public School"
"12720",76.3447674,9.9522916,"1474216046",2082,"school","Sanskriti High School"
"12721",76.3492466,9.9430975,"1474216989",2082,"school","Government Boys Higher Secondary School"
"12800",75.6943626,16.181323,"1474291884",2082,"school","Vishwachetana School"
"12809",75.6914872,16.1807779,"1474299419",2082,"school","Amar Urdu School"
"12812",75.6945128,16.1872069,"1474301452",2082,"school","Government Girl's High School"
"12868",77.0017133,11.0763477,"1474348707",2082,"school","Saravanampatty Elementary School"
"12913",77.6040318,12.9310725,"1474432215",2082,"school","Christ School"
"12962",76.9648609,10.9945514,"1474490995",2082,"school","Presentation convent"
"12973",76.9601082,10.9955422,"1474491024",2082,"school","corporation Girls High school"
"12976",76.9658375,10.9945881,"1474491029",2082,"school","St.Michaels School"
"12984",76.9971414,10.9976249,"1474518415",2082,"school","Trinity Boys High school"
"12990",76.9905727,11.0091964,"1474518438",2082,"school","Corporation girls high school"
"12994",76.9902482,11.0096519,"1474518444",2082,"school","Vidhya nikethan school"
"13023",76.9639944,10.9944145,"1474726858",2082,"school","St.Fathima's School"
"13036",75.6181157,15.4085262,"1474747581",2082,"school","Parshwanath School"
"13047",75.6367356,15.431885,"1474747646",2082,"school","Delhi Redymade school"
"13070",76.9578433,10.9925558,"1474803274",2082,"school","VASAVI VIDYALAYA"
"13153",77.5442442,12.9737683,"1474827899",2082,"school","Vasavi Polytechnic College"
"13175",74.508544,15.8332033,"1474854469",2082,"school","GSS college"
"13176",77.5327333,12.9619713,"1474854776",2082,"school","RNS Vidyaniketan School"
"13179",77.5330893,12.9646688,"1474854792",2082,"school","KVV High School"
"13181",74.5075676,15.8332755,"1474856168",2082,"school","R P D college"
"13182",74.5094988,15.8331517,"1474856664",2082,"school","Law College"
"13199",74.5067893,15.8614441,"1474870146",2082,"school","Vanita Vidyalaya"
"13202",74.5060061,15.8619911,"1474870773",2082,"school","Benon smith college"
"13204",77.6580406,13.0042548,"1474872713",2082,"school","Indo-German School"
"13209",76.9844758,10.9955885,"1474872833",2082,"school","Bishop Ambrose College"
"13219",74.5074706,15.8637894,"1474888035",2082,"school","LIngraj college"
"13221",74.5070307,15.8639029,"1474888143",2082,"school","RL law college"
"13225",74.5078907,15.864949,"1474889395",2082,"school","GA Kannada High school"
"13226",74.5123782,15.865839,"1474890235",2082,"school","Sardar School"
"13229",74.5119499,15.8653168,"1474890921",2082,"school","Sardar B Ed college"
"13237",76.9564045,10.9371249,"1474928621",2082,"school","Sri Krishna College of Engineering"
"13245",79.9848689,14.4567099,"1475034716",2082,"school","St Jhon's English Medium High School"
"13262",79.9838657,14.44804,"1475133310",2082,"school","VRC High School"
"13300",75.8069924,30.1218719,"1477465744",2082,"school","S.U.S. Govt. College"
"13301",75.8050836,30.1211714,"1477465745",2082,"school","DAV Public School"
"13303",75.8033232,30.1267484,"1477470439",2082,"school","Girl's School"
"13308",75.8940908,30.1579027,"1477485236",2082,"school","Govt. Senior Secondary School"
"13312",75.9302953,30.0606079,"1477489284",2082,"school","Govt. School"
"13318",70.8005309,22.2885027,"1478267948",2082,"school","Kathiyawar Nitashrit Balashram"
"13325",80.14014,17.2488716,"1479929420",2082,"school","Govt. Girls High School"
"13327",76.9418503,11.2894656,"1480248862",2082,"school",NA
"13334",75.9071552,30.1469972,"1481160370",2082,"school","Convant School"
"13337",77.3346275,13.1451021,"1481232389",2082,"school","Government Primary School"
"13343",77.6572424,12.8988361,"1482388692",2082,"school","Vibgyor School"
"13347",78.6884958,10.8178071,"1482551749",2082,"school","Mahatma Gandhi Centinary Vidayalaya"
"13348",78.6881846,10.8178597,"1482551796",2082,"school","Rajaji Vidyalaya"
"13349",78.6919346,10.8255865,"1482555671",2082,"school","Holy Cross Girls Higher Secondary School"
"13371",75.9101944,30.2485872,"1485628852",2082,"school","Global Earth Public School"
"13395",75.8059709,30.1478826,"1490138806",2082,"school","Guru Nanak Dev Dental College"
"13398",75.8069418,30.1308615,"1490166831",2082,"school","Adarsh Public School"
"13399",75.8099325,30.1345197,"1490414056",2082,"school","Model Basic High School"
"13400",75.8150528,30.1314321,"1490422834",2082,"school","Tiny Tots Play Way School"
"13413",77.3560884,31.1206689,"1491398858",2082,"school","Govt College Theog"
"13425",75.7964548,30.1250853,"1492174248",2082,"school","Govt. Boys School"
"13436",75.626215,30.5785004,"1492982680",2082,"school","Kutba Public School"
"13438",72.9287462,19.0616091,"1494144718",2082,"school","Chikalwadi BMC school"
"13439",72.8644129,19.1270093,"1495251021",2082,"school","ST. DOMINIC SAVIO HIGH SCHOOL"
"13441",72.8597251,19.2271718,"1496182478",2082,"school","Muncipal School"
"13499",76.4653962,20.9444854,"1505127913",2082,"school","Zilla Parishad Marathi School, Manegaon"
"13511",74.974313,12.564531,"1508288147",2082,"school",NA
"13512",74.974333,12.564105,"1508288281",2082,"school",NA
"13513",74.974913,12.564039,"1508288352",2082,"school",NA
"13514",75.164767,12.10836,"1508288412",2082,"school",NA
"13515",74.974866,12.564572,"1508288455",2082,"school",NA
"13516",75.164956,12.108712,"1508288529",2082,"school",NA
"13517",75.165092,12.108485,"1508288544",2082,"school",NA
"13518",75.165216,12.108199,"1508288648",2082,"school",NA
"13519",75.164839,12.108074,"1508288764",2082,"school",NA
"13520",75.164666,12.108615,"1508288772",2082,"school",NA
"13525",77.6147425,12.9872606,"1511648082",2082,"school","Kendriya Vidhyalaya, MEG Centre"
"13526",76.1414535,30.2654043,"1512535000",2082,"school","Asra Group of Institutions"
"13535",76.3870339,30.3348219,"1514006540",2082,"school","Army School"
"13541",76.3785474,30.3450907,"1514012412",2082,"school","DAV Public School"
"13542",76.4542071,30.3581588,"1514012421",2082,"school","Punjabi University"
"13590",74.7374877,13.3871925,"1530682393",2082,"school","Mount Rosary English Medium School"
"13592",74.7355728,13.3945145,"1530684880",2082,"school","Milagres English Medium School"
"13593",74.7362702,13.3946787,"1530685012",2082,"school","St. Jospeh's Primary School"
"13594",74.7344118,13.3958973,"1530685744",2082,"school","Milagres College"
"13595",74.7365975,13.3962051,"1530688287",2082,"school","Milagres High School"
"13618",77.6505939,13.005896,"1533914726",2082,"school","CMR Law College"
"13706",75.6946917,16.8332977,"1539490349",2082,"school","Sainik School"
"13717",72.8509934,19.1044999,"1541880069",2082,"school","Shivaji School"
"13721",77.6278036,12.9719967,"1543969345",2082,"school","Ankur Nursery School"
"13726",69.7964836,23.2346787,"1545193207",2082,"school","Anganwadi"
"13772",77.3053079,8.9664612,"1548773836",2082,"school","MKVK Matric School"
"13773",77.3043316,8.9695033,"1548773845",2082,"school","ICI Boys Hr. Sec. School"
"13774",77.3088165,8.9123452,"1548790274",2082,"school","Hilton Matric Hr. Sec. School"
"13791",73.7966196,17.9263632,"1551870782",2082,"school","New Era High School"
"13805",76.0807333,10.8482474,"1553244944",2082,"school","Madrassa"
"13807",76.0840713,10.8508723,"1553244950",2082,"school",NA
"13816",78.4773556,17.396378,"1553576940",2082,"school","St. Joseph's Girls High School"
"13871",73.3002047,18.9196667,"1566937742",2082,"school","khairat primary school"
"13876",77.541311,12.9655182,"1568765286",2082,"school","St. Johns High School"
"13894",74.2549076,16.7185735,"1571723151",2082,"school","Samata High School"
"13909",74.8580589,12.8769077,"1574227792",2082,"school","St Agnes"
"13972",91.7539119,26.1914525,"1577816179",2082,"school","Uzanbazar Government Girls' High School"
"14006",88.4176503,22.4400409,"1579184934",2082,"school","Sarada Vidyapith"
"14023",80.4304589,16.3106512,"1579260386",2082,"school","Siddhartha School"
"14024",80.4238754,16.3118373,"1579261063",2082,"school","Sree Patibandla Seetaramaiah High School"
"14043",91.7527946,26.1904355,"1579672869",2082,"school",NA
"14044",91.7542213,26.1908248,"1579672871",2082,"school","Marnik Ch. Barua School"
"14134",72.8364705,19.0815502,"1590331876",2082,"school","Podar International School"
"14154",80.221575,12.9758373,"1596154407",2082,"school","Lets do Something - Activity center"
"14211",72.190898,10.8530733,"1602091238",2082,"school","Government Senior Secondary School Agatti"
"14212",72.195156,10.8643835,"1602091588",2082,"school","Government junior basic school"
"14213",72.1954973,10.8644452,"1602091632",2082,"school","government senior basic school Agatti"
"14246",74.7423802,13.3310781,"1603389452",2082,"school","Government High School"
"14274",76.2020116,10.5654237,"1604616439",2082,"school","St. Ann's School"
"14275",76.188445,10.5628502,"1604634330",2082,"school","Chandra Memorial HSS"
"14284",76.2216128,10.5313597,"1606145243",2082,"school","Maharajas Technical Institute"
"14300",76.8077426,9.666044,"1608966144",2082,"school","Maniyamkunnu School"
"14305",79.1353949,26.5644919,"1610418309",2082,"school","niranjan nagar college"
"14326",77.5043343,12.5272663,"1612971584",2082,"school","Sundaghatta School"
"14328",74.2550894,16.7143893,"1614188939",2082,"school","Bharti Vidyapeeth Institute of Management"
"14329",74.2561462,16.7134335,"1614188949",2082,"school","Dr.D.Y.Patil Jr.College"
"14333",77.5805314,12.9873383,"1614268180",2082,"school","Bharat Seva Dal"
"14338",77.5807735,12.9880363,"1614268204",2082,"school","Sindhi High School"
"14354",88.376386,22.7975327,"1616501244",2082,"school","Anandamath Vidyapith"
"14369",74.2437147,16.7294628,"1619202271",2082,"school","Dr.D.Y.Patil Medical College"
"14373",77.5807282,13.0323102,"1619884915",2082,"school","Shiksha Sagar High School"
"14375",77.5755122,12.9220691,"1620352034",2082,"school","JSS Composite PU College"
"14381",91.1771651,23.4625244,"1621004498",2082,"school","Nawab Faizunnesa Girls High School"
"14382",91.1800519,23.4672286,"1621004499",2082,"school","Our Lady of Fatima Girls High School"
"14393",91.1758597,23.4592188,"1621214372",2082,"school","Comilla Modern School"
"14395",80.1549408,13.1195338,"1621240490",2082,"school","Maha Ganesa Vidyalaya"
"14408",77.1159698,8.2801333,"1623274370",2082,"school","St Jude's Middle School Vallavilai"
"14409",77.1087841,8.2850171,"1623274579",2082,"school","St. Aloysius Higher Secondary School"
"14410",77.1208407,8.2880721,"1623274778",2082,"school","Govt. Higher Secondary School Kollencode"
"14411",77.1155406,8.2839952,"1623274891",2082,"school","Govt. Primary School"
"14412",77.1104176,8.2899804,"1623275278",2082,"school","Sreedevli Girls Higher Secondary School"
"14440",75.5432066,13.9526786,"1632209355",2082,"school","Vikasa Vidya Samsthe"
"14460",80.2155154,12.9667572,"1636170540",2082,"school","Pon Vidhyashram School"
"14461",80.2123879,12.9757851,"1636171309",2082,"school","SAN Academy"
"14462",80.1928829,12.9579014,"1636178008",2082,"school","Annai Velankanni Matriculation School"
"14470",76.6435489,12.2914909,"1636799287",2082,"school","Sharada Vilas School and College"
"14487",76.6433369,12.3131217,"1637364494",2082,"school","Ideal Jawa Rotary High School"
"14508",76.6523363,12.2867825,"1638996823",2082,"school","St. Mary's School"
"14558",77.0479506,28.6059739,"1643999814",2082,"school","Delhi Public School, Dwarka"
"14572",76.6419285,12.2903852,"1645739595",2082,"school","Ashokapuram Government School"
"14603",76.6946692,11.4067358,"1650194640",2082,"school","Bethlehem school"
"14616",76.643176,12.2929278,"1651638566",2082,"school","Bhagini Seva Samaja"
"14632",80.2075894,13.0916188,"1653993044",2082,"school","Chinmaya Vidhyalaya, Anna Nagar"
"14649",76.7069742,11.4129525,"1655804606",2082,"school","breeks higher secondary school"
"14660",73.7654508,15.5385389,"1656281091",2082,"school","Little Flower of Jesus High School"
"14661",76.8324001,28.2662766,"1656306385",2082,"school","Govt. Primary Boys School, Sidhrawali"
"14662",76.8338851,28.2669425,"1656306395",2082,"school","Govt. Primary Girls School, Sidhrawali"
"14663",76.8328043,28.2687959,"1656306397",2082,"school","Govt. Senior Secondary School, Sidhrawali"
"14664",76.8335477,28.2665063,"1656306398",2082,"school","Suman Public School"
"14680",77.5885571,12.9269543,"1657121854",2082,"school","Bangalore Educational Society"
"14682",77.5868566,12.9282849,"1657124482",2082,"school","Bangalore High School(BHS)"
"14696",84.4237056,27.4312803,"1657835380",2082,"school","Krishna Nagar School"
"14698",84.3214555,27.453595,"1657866079",2082,"school","Madi Campus"
"14749",91.181393,23.4630022,"1664986100",2082,"school","Comilla Zilla School"
"14816",77.7484337,11.3612506,"1668205965",2082,"school","School"
"14859",75.4880382,11.7495164,"1668654734",2082,"school","BEMP higher secondary school"
"14860",75.4871188,11.7491829,"1668656297",2082,"school","Sacred Heart Girl's Higher Secondary School"
"14861",75.4882877,11.7509146,"1668659156",2082,"school","Govt. girl high school"
"14862",75.4873114,11.7508778,"1668659551",2082,"school","Govt. Brennen High school"
"14863",75.4818987,11.7637606,"1668659859",2082,"school","Koduvally High School"
"14866",75.5026804,11.753446,"1668664928",2082,"school","Chirakkara High School"
"14902",78.0093785,27.1990317,"1669068826",2082,"school","St Peter's College"
"14948",76.8763858,8.5466316,"1669928917",2082,"school","Kidzee play school"
"14997",80.266308,13.0017,"1672262615",2082,"school","St.Johns English School"
"15027",75.2114113,17.0505572,"1673639529",2082,"school","SRVM Highschool & Junior College"
"15029",75.2125163,17.0504854,"1673640189",2082,"school",NA
"15033",75.211819,17.045567,"1673643296",2082,"school","Jath Highschool"
"15036",75.1997168,17.0503777,"1673646155",2082,"school","Raje Ramrao College"
"15047",77.6276766,12.9404727,"1675227962",2082,"school",NA
"15070",76.6816599,11.4152935,"1676769359",2082,"school","Nirmala school"
"15096",75.4853713,11.7587698,"1681213557",2082,"school","Chettamkunnu UP school"
"15101",75.5004153,11.7391296,"1681285012",2082,"school","Mubaraq Higher Secondary School"
"15113",75.4694672,11.7711428,"1681427566",2082,"school","Vidyaniketan Kinder Garden"
"15115",75.4703175,11.7713765,"1681429631",2082,"school","Govt. Mapila UP School"
"15120",76.6271507,12.2888911,"1681443539",2082,"school","Dasthi Institute of Nursing"
"15125",76.6277193,12.2865429,"1681443547",2082,"school","Queen's Fashion Institute"
"15126",76.6308216,12.2887417,"1681443548",2082,"school","NIIT"
"15139",76.6260429,12.2844462,"1681456781",2082,"school","Net Focus Browsing Center"
"15166",76.9569414,8.4424586,"1682986425",2082,"school","BNV School, Thiruvallam"
"15167",76.9571131,8.4428513,"1682987031",2082,"school","BNV College for Teacher Education"
"15197",74.8364984,12.9054075,"1683107830",2082,"school","Government School, Kottara"
"15211",75.2667796,12.07931,"1683346347",2082,"school","Mary Matha School"
"15215",75.8327253,30.2450398,"1683377991",2082,"school","BBC Academy"
"15220",75.8469931,30.2372493,"1683429069",2082,"school","Ranbir College"
"15223",76.9620335,8.473923,"1684243280",2082,"school","Nedumcaud UPS"
"15228",75.1920257,12.0716209,"1684527528",2082,"school","Chidambaranath U.P. School"
"15240",75.2736999,12.0754267,"1685141744",2082,"school","Vilayancode Saint Mary's School"
"15247",76.8459495,8.5618912,"1685417179",2082,"school","St. Andrews School"
"15252",77.8174288,8.3571347,"1685457444",2082,"school","Saint Jon of Arc College"
"15253",77.7615208,8.4022136,"1685457465",2082,"school","Rect polytechnic college"
"15260",75.4689514,11.7702373,"1685956397",2082,"school","Meethale peedika UP School"
"15267",88.3674297,22.5269916,"1686118748",2082,"school","Patha Bhavan Higher Secondary School"
"15268",88.3683953,22.5287655,"1686118749",2082,"school","Patha Bhavan High School"
"15271",75.8028278,30.9408416,"1686785869",2082,"school","Government School"
"15274",75.8065586,30.9234416,"1686928740",2082,"school","Govt. School"
"15279",73.8312867,15.4953052,"1687186915",2082,"school","Seventh Day Adventist English School"
"15295",75.3698555,12.0494893,"1689198725",2082,"school","Tagore Vidyaniketan GHSS"
"15296",75.3659985,12.0426586,"1689199101",2082,"school","Seethi Sahib HSS"
"15301",77.8608858,8.3670848,"1689959181",2082,"school","VV Engineering college"
"15315",75.2050681,12.1062095,"1690091415",2082,"school","St. Mary's High School"
"15326",79.8291216,11.9892795,"1690133300",2082,"school","Kuilapalayam Hr. Secondary School"
